{
"type": "FeatureCollection",
"name": "5cc00c44-ff86-444f-b375-ce00556a1bfa2020330-1-1akf094.n4kal",
"crs": { "type": "name", "properties": { "name": "urn:ogc:def:crs:OGC:1.3:CRS84" } },
"features": [
{ "type": "Feature", "properties": { "OBJECTID": 1, "FISCAL_YEAR_COMPLETE": 2019, "PROJECT_NAME": "Gloria Casarez Residence (1315 N 8th)", "DEVELOPER_NAME": "Project HOME", "ADDRESS": "1315 N 8TH ST", "PROJECT_TYPE": "Special Needs", "TOTAL_UNITS": 30, "ACCESSIBLE_UNITS": 4, "SENSORY_UNITS": 2, "VISITABLE_UNITS": 30 }, "geometry": { "type": "Point", "coordinates": [ -75.149304065402646, 39.972339828010945 ] } },
{ "type": "Feature", "properties": { "OBJECTID": 2, "FISCAL_YEAR_COMPLETE": 2019, "PROJECT_NAME": "Roberto Clemente Homes", "DEVELOPER_NAME": "Nueva Esperanza", "ADDRESS": "3921-61 N 5TH ST", "PROJECT_TYPE": "Rental", "TOTAL_UNITS": 38, "ACCESSIBLE_UNITS": 6, "SENSORY_UNITS": 2, "VISITABLE_UNITS": 38 }, "geometry": { "type": "Point", "coordinates": [ -75.135425389382419, 40.011449918493788 ] } },
{ "type": "Feature", "properties": { "OBJECTID": 3, "FISCAL_YEAR_COMPLETE": 2019, "PROJECT_NAME": "Henry Avenue Senior Campus I", "DEVELOPER_NAME": "NewCourtland Elder Services", "ADDRESS": "3232 HENRY AVE", "PROJECT_TYPE": "Rental", "TOTAL_UNITS": 49, "ACCESSIBLE_UNITS": 6, "SENSORY_UNITS": 2, "VISITABLE_UNITS": 49 }, "geometry": { "type": "Point", "coordinates": [ -75.182270126681217, 40.009795556883866 ] } },
{ "type": "Feature", "properties": { "OBJECTID": 4, "FISCAL_YEAR_COMPLETE": 2019, "PROJECT_NAME": "Villas Del Caribe", "DEVELOPER_NAME": "HACE", "ADDRESS": "161-71 W ALLEGHENY AVE", "PROJECT_TYPE": "Rental", "TOTAL_UNITS": 81, "ACCESSIBLE_UNITS": 10, "SENSORY_UNITS": 2, "VISITABLE_UNITS": 60 }, "geometry": { "type": "Point", "coordinates": [ -75.132022320394967, 39.998918906257195 ] } },
{ "type": "Feature", "properties": { "OBJECTID": 5, "FISCAL_YEAR_COMPLETE": 2019, "PROJECT_NAME": "Cantrell Place", "DEVELOPER_NAME": "Presby's Inspired Life", "ADDRESS": "447 CANTRELL ST", "PROJECT_TYPE": "Rental", "TOTAL_UNITS": 61, "ACCESSIBLE_UNITS": 8, "SENSORY_UNITS": 4, "VISITABLE_UNITS": 61 }, "geometry": { "type": "Point", "coordinates": [ -75.154805790296351, 39.922077930287259 ] } },
{ "type": "Feature", "properties": { "OBJECTID": 6, "FISCAL_YEAR_COMPLETE": 2019, "PROJECT_NAME": "Ann Thomas Presbyterian", "DEVELOPER_NAME": "Presby's Inspired Life", "ADDRESS": "2000 S 58TH ST", "PROJECT_TYPE": "Rental", "TOTAL_UNITS": 75, "ACCESSIBLE_UNITS": 75, "SENSORY_UNITS": 3, "VISITABLE_UNITS": 75 }, "geometry": { "type": "Point", "coordinates": [ -75.226702991095408, 39.933188137094639 ] } },
{ "type": "Feature", "properties": { "OBJECTID": 7, "FISCAL_YEAR_COMPLETE": 2018, "PROJECT_NAME": "APM Preservation", "DEVELOPER_NAME": "APM", "ADDRESS": "2011-25 N MARSHALL ST", "PROJECT_TYPE": "Rental", "TOTAL_UNITS": 80, "ACCESSIBLE_UNITS": 8, "SENSORY_UNITS": 4, "VISITABLE_UNITS": 13 }, "geometry": { "type": "Point", "coordinates": [ -75.144740617760164, 39.98210684432032 ] } },
{ "type": "Feature", "properties": { "OBJECTID": 8, "FISCAL_YEAR_COMPLETE": 2018, "PROJECT_NAME": "The Lofts at 2601", "DEVELOPER_NAME": "Volunteers of America", "ADDRESS": "2601 N BROAD ST", "PROJECT_TYPE": "Special Needs", "TOTAL_UNITS": 56, "ACCESSIBLE_UNITS": 6, "SENSORY_UNITS": 2, "VISITABLE_UNITS": 14 }, "geometry": { "type": "Point", "coordinates": [ -75.154358841647749, 39.992196376040717 ] } },
{ "type": "Feature", "properties": { "OBJECTID": 9, "FISCAL_YEAR_COMPLETE": 2018, "PROJECT_NAME": "Anthony Wayne III", "DEVELOPER_NAME": "Elon Group", "ADDRESS": "1701 S 28TH ST", "PROJECT_TYPE": "Rental", "TOTAL_UNITS": 45, "ACCESSIBLE_UNITS": 6, "SENSORY_UNITS": 2, "VISITABLE_UNITS": 45 }, "geometry": { "type": "Point", "coordinates": [ -75.190448574121703, 39.931651484986006 ] } },
{ "type": "Feature", "properties": { "OBJECTID": 10, "FISCAL_YEAR_COMPLETE": 2018, "PROJECT_NAME": "Centennial Village", "DEVELOPER_NAME": "Community Ventures", "ADDRESS": "1702 N 52nd St", "PROJECT_TYPE": "Rental", "TOTAL_UNITS": 52, "ACCESSIBLE_UNITS": 9, "SENSORY_UNITS": 3, "VISITABLE_UNITS": 52 }, "geometry": { "type": "Point", "coordinates": [ -75.22513553931411, 39.981042042831298 ] } },
{ "type": "Feature", "properties": { "OBJECTID": 11, "FISCAL_YEAR_COMPLETE": 2018, "PROJECT_NAME": "Ruth Williams House", "DEVELOPER_NAME": "Project HOME", "ADDRESS": "2413-29 N BROAD ST", "PROJECT_TYPE": "Special Needs", "TOTAL_UNITS": 88, "ACCESSIBLE_UNITS": 10, "SENSORY_UNITS": 4, "VISITABLE_UNITS": 88 }, "geometry": { "type": "Point", "coordinates": [ -75.154913431518125, 39.990069029457352 ] } },
{ "type": "Feature", "properties": { "OBJECTID": 12, "FISCAL_YEAR_COMPLETE": 2018, "PROJECT_NAME": "Tioga Family", "DEVELOPER_NAME": "Gaudenzia Foundation", "ADDRESS": "1822-26 W TIOGA ST", "PROJECT_TYPE": "Special Needs", "TOTAL_UNITS": 24, "ACCESSIBLE_UNITS": null, "SENSORY_UNITS": null, "VISITABLE_UNITS": null }, "geometry": { "type": "Point", "coordinates": [ -75.159338004103773, 40.006712550748965 ] } },
{ "type": "Feature", "properties": { "OBJECTID": 13, "FISCAL_YEAR_COMPLETE": 2017, "PROJECT_NAME": "Mt. Vernon Manor II", "DEVELOPER_NAME": "Mt. Vernon Manor CDC", "ADDRESS": "3202 MANTUA AVE", "PROJECT_TYPE": "Rental", "TOTAL_UNITS": 46, "ACCESSIBLE_UNITS": 6, "SENSORY_UNITS": 2, "VISITABLE_UNITS": 4 }, "geometry": { "type": "Point", "coordinates": [ -75.189892857788692, 39.966023661919756 ] } },
{ "type": "Feature", "properties": { "OBJECTID": 14, "FISCAL_YEAR_COMPLETE": 2017, "PROJECT_NAME": "NewCourtland at Allegheny II", "DEVELOPER_NAME": "NewCourtland Elder Services", "ADDRESS": "1900 W ALLEGHENY AVE", "PROJECT_TYPE": "Rental", "TOTAL_UNITS": 45, "ACCESSIBLE_UNITS": 7, "SENSORY_UNITS": 2, "VISITABLE_UNITS": 45 }, "geometry": { "type": "Point", "coordinates": [ -75.16067068402316, 40.002057108917178 ] } },
{ "type": "Feature", "properties": { "OBJECTID": 15, "FISCAL_YEAR_COMPLETE": 2017, "PROJECT_NAME": "Wynn Senior Residences", "DEVELOPER_NAME": "Pennrose", "ADDRESS": "2001-11 N 54TH ST", "PROJECT_TYPE": "Rental", "TOTAL_UNITS": 50, "ACCESSIBLE_UNITS": 6, "SENSORY_UNITS": 2, "VISITABLE_UNITS": 50 }, "geometry": { "type": "Point", "coordinates": [ -75.231671924249312, 39.987001108651995 ] } },
{ "type": "Feature", "properties": { "OBJECTID": 16, "FISCAL_YEAR_COMPLETE": 2017, "PROJECT_NAME": "Orinoka Mills", "DEVELOPER_NAME": "New Kensington CDC", "ADDRESS": "2721-69 RUTH ST", "PROJECT_TYPE": "Rental", "TOTAL_UNITS": 51, "ACCESSIBLE_UNITS": null, "SENSORY_UNITS": null, "VISITABLE_UNITS": null }, "geometry": { "type": "Point", "coordinates": [ -75.123388539572332, 39.98990209320926 ] } },
{ "type": "Feature", "properties": { "OBJECTID": 17, "FISCAL_YEAR_COMPLETE": 2017, "PROJECT_NAME": "Lindley Court", "DEVELOPER_NAME": "WES Corp", "ADDRESS": "1300 W LINDLEY AVE", "PROJECT_TYPE": "Rental", "TOTAL_UNITS": 48, "ACCESSIBLE_UNITS": 5, "SENSORY_UNITS": null, "VISITABLE_UNITS": null }, "geometry": { "type": "Point", "coordinates": [ -75.144734501031735, 40.029735360298062 ] } },
{ "type": "Feature", "properties": { "OBJECTID": 18, "FISCAL_YEAR_COMPLETE": 2017, "PROJECT_NAME": "Blumberg Apartments I", "DEVELOPER_NAME": "Phila Housing Authority", "ADDRESS": "1500-02 N 24TH ST", "PROJECT_TYPE": "Rental", "TOTAL_UNITS": 57, "ACCESSIBLE_UNITS": 6, "SENSORY_UNITS": 0, "VISITABLE_UNITS": null }, "geometry": { "type": "Point", "coordinates": [ -75.174806043270522, 39.978426325838115 ] } },
{ "type": "Feature", "properties": { "OBJECTID": 19, "FISCAL_YEAR_COMPLETE": 2016, "PROJECT_NAME": "St. Raymond's House", "DEVELOPER_NAME": "Depaul USA", "ADDRESS": "1330 VERNON RD", "PROJECT_TYPE": "Special Needs", "TOTAL_UNITS": 28, "ACCESSIBLE_UNITS": 2, "SENSORY_UNITS": 2, "VISITABLE_UNITS": 28 }, "geometry": { "type": "Point", "coordinates": [ -75.166861604146177, 40.071827155335498 ] } },
{ "type": "Feature", "properties": { "OBJECTID": 20, "FISCAL_YEAR_COMPLETE": 2016, "PROJECT_NAME": "Tajdeed", "DEVELOPER_NAME": "Arab American Dev Corp", "ADDRESS": "246-66 W OXFORD ST", "PROJECT_TYPE": "Rental", "TOTAL_UNITS": 45, "ACCESSIBLE_UNITS": 5, "SENSORY_UNITS": 2, "VISITABLE_UNITS": 35 }, "geometry": { "type": "Point", "coordinates": [ -75.140807876984454, 39.974712908608012 ] } },
{ "type": "Feature", "properties": { "OBJECTID": 21, "FISCAL_YEAR_COMPLETE": 2016, "PROJECT_NAME": "NewCourtland at Allegheny", "DEVELOPER_NAME": "NewCourtland Elder Services", "ADDRESS": "1900 W ALLEGHENY AVE", "PROJECT_TYPE": "Rental", "TOTAL_UNITS": 60, "ACCESSIBLE_UNITS": 6, "SENSORY_UNITS": 2, "VISITABLE_UNITS": 60 }, "geometry": { "type": "Point", "coordinates": [ -75.16067068402316, 40.002057108917178 ] } },
{ "type": "Feature", "properties": { "OBJECTID": 22, "FISCAL_YEAR_COMPLETE": 2016, "PROJECT_NAME": "Nativity BVM Senior", "DEVELOPER_NAME": "Catholic Health Care Services", "ADDRESS": "3255 BELGRADE ST", "PROJECT_TYPE": "Rental", "TOTAL_UNITS": 63, "ACCESSIBLE_UNITS": 6, "SENSORY_UNITS": 3, "VISITABLE_UNITS": 63 }, "geometry": { "type": "Point", "coordinates": [ -75.102604772135194, 39.986910190773337 ] } },
{ "type": "Feature", "properties": { "OBJECTID": 23, "FISCAL_YEAR_COMPLETE": 2016, "PROJECT_NAME": "Ingersoll Commons Homeownership", "DEVELOPER_NAME": "Community Ventures", "ADDRESS": "1301 N SMEDLEY ST", "PROJECT_TYPE": "Homeownership", "TOTAL_UNITS": 10, "ACCESSIBLE_UNITS": null, "SENSORY_UNITS": null, "VISITABLE_UNITS": null }, "geometry": { "type": "Point", "coordinates": [ -75.162835522421105, 39.974222314745028 ] } },
{ "type": "Feature", "properties": { "OBJECTID": 24, "FISCAL_YEAR_COMPLETE": 2016, "PROJECT_NAME": "Tasker Village Energy", "DEVELOPER_NAME": "Diversified Community Services", "ADDRESS": "1508 S 16TH ST", "PROJECT_TYPE": "Rental", "TOTAL_UNITS": 28, "ACCESSIBLE_UNITS": null, "SENSORY_UNITS": null, "VISITABLE_UNITS": null }, "geometry": { "type": "Point", "coordinates": [ -75.171944653701729, 39.931540752154085 ] } },
{ "type": "Feature", "properties": { "OBJECTID": 25, "FISCAL_YEAR_COMPLETE": 2016, "PROJECT_NAME": "Mt. Airy Corridor Mixed Use", "DEVELOPER_NAME": "Mt. Airy CDC", "ADDRESS": "6513 GERMANTOWN AVE", "PROJECT_TYPE": "Rental", "TOTAL_UNITS": 3, "ACCESSIBLE_UNITS": null, "SENSORY_UNITS": null, "VISITABLE_UNITS": null }, "geometry": { "type": "Point", "coordinates": [ -75.18345071686727, 40.048831700749169 ] } },
{ "type": "Feature", "properties": { "OBJECTID": 26, "FISCAL_YEAR_COMPLETE": 2016, "PROJECT_NAME": "Winghocking Street", "DEVELOPER_NAME": "Nicetown CDC", "ADDRESS": "2006 W WINGOHOCKING ST", "PROJECT_TYPE": "Homeownership", "TOTAL_UNITS": 2, "ACCESSIBLE_UNITS": null, "SENSORY_UNITS": null, "VISITABLE_UNITS": null }, "geometry": { "type": "Point", "coordinates": [ -75.158403860353502, 40.022605196705939 ] } },
{ "type": "Feature", "properties": { "OBJECTID": 27, "FISCAL_YEAR_COMPLETE": 2015, "PROJECT_NAME": "Anthony Wayne Senior II", "DEVELOPER_NAME": "Elon Group", "ADDRESS": "1701 S 28TH ST", "PROJECT_TYPE": "Rental", "TOTAL_UNITS": 46, "ACCESSIBLE_UNITS": 6, "SENSORY_UNITS": 3, "VISITABLE_UNITS": null }, "geometry": { "type": "Point", "coordinates": [ -75.190448574121703, 39.931651484986006 ] } },
{ "type": "Feature", "properties": { "OBJECTID": 28, "FISCAL_YEAR_COMPLETE": 2015, "PROJECT_NAME": "Bigham Place", "DEVELOPER_NAME": "PEC", "ADDRESS": "4226-32 POWELTON AVE", "PROJECT_TYPE": "Special Needs", "TOTAL_UNITS": 11, "ACCESSIBLE_UNITS": 2, "SENSORY_UNITS": 1, "VISITABLE_UNITS": null }, "geometry": { "type": "Point", "coordinates": [ -75.207220416145049, 39.958398855124116 ] } },
{ "type": "Feature", "properties": { "OBJECTID": 29, "FISCAL_YEAR_COMPLETE": 2015, "PROJECT_NAME": "Cross\/Greenwich - Habitat", "DEVELOPER_NAME": "Habitat for Humanity", "ADDRESS": "2325 CROSS ST", "PROJECT_TYPE": "Homeownership", "TOTAL_UNITS": 6, "ACCESSIBLE_UNITS": null, "SENSORY_UNITS": null, "VISITABLE_UNITS": null }, "geometry": { "type": "Point", "coordinates": [ -75.183700244073776, 39.933010541970454 ] } },
{ "type": "Feature", "properties": { "OBJECTID": 30, "FISCAL_YEAR_COMPLETE": 2015, "PROJECT_NAME": "HELP Philadelphia IV", "DEVELOPER_NAME": "HELP USA", "ADDRESS": "7100 GROVERS AVE", "PROJECT_TYPE": "Rental", "TOTAL_UNITS": 60, "ACCESSIBLE_UNITS": 8, "SENSORY_UNITS": 2, "VISITABLE_UNITS": null }, "geometry": { "type": "Point", "coordinates": [ -75.235606764247052, 39.911566319298068 ] } },
{ "type": "Feature", "properties": { "OBJECTID": 31, "FISCAL_YEAR_COMPLETE": 2015, "PROJECT_NAME": "Latona Green", "DEVELOPER_NAME": "Innova Redevelopment", "ADDRESS": "1231 S 17TH ST", "PROJECT_TYPE": "Homeownership", "TOTAL_UNITS": 10, "ACCESSIBLE_UNITS": null, "SENSORY_UNITS": null, "VISITABLE_UNITS": null }, "geometry": { "type": "Point", "coordinates": [ -75.172036088352627, 39.935486319440621 ] } },
{ "type": "Feature", "properties": { "OBJECTID": 32, "FISCAL_YEAR_COMPLETE": 2015, "PROJECT_NAME": "Allegheny West Preservation", "DEVELOPER_NAME": "Allegheny West Foundation", "ADDRESS": "2804 N BAMBREY", "PROJECT_TYPE": "Rental", "TOTAL_UNITS": 32, "ACCESSIBLE_UNITS": null, "SENSORY_UNITS": null, "VISITABLE_UNITS": null }, "geometry": { "type": "Point", "coordinates": [ -75.173150138523226, 39.998164522538623 ] } },
{ "type": "Feature", "properties": { "OBJECTID": 33, "FISCAL_YEAR_COMPLETE": 2015, "PROJECT_NAME": "Fairthorne Senior", "DEVELOPER_NAME": "Intercommunity Action", "ADDRESS": "6761-63 RIDGE AVE", "PROJECT_TYPE": "Rental", "TOTAL_UNITS": 40, "ACCESSIBLE_UNITS": 4, "SENSORY_UNITS": 2, "VISITABLE_UNITS": null }, "geometry": { "type": "Point", "coordinates": [ -75.225042830122604, 40.041677958068334 ] } },
{ "type": "Feature", "properties": { "OBJECTID": 34, "FISCAL_YEAR_COMPLETE": 2015, "PROJECT_NAME": "Wynnefield Place", "DEVELOPER_NAME": "Presby's Inspired Life", "ADDRESS": "1717-25 N 54TH ST", "PROJECT_TYPE": "Rental", "TOTAL_UNITS": 48, "ACCESSIBLE_UNITS": 5, "SENSORY_UNITS": 2, "VISITABLE_UNITS": null }, "geometry": { "type": "Point", "coordinates": [ -75.230410618463068, 39.983309981592676 ] } },
{ "type": "Feature", "properties": { "OBJECTID": 35, "FISCAL_YEAR_COMPLETE": 2014, "PROJECT_NAME": "Mt. Vernon Manor", "DEVELOPER_NAME": "Mt. Vernon Manor CDC", "ADDRESS": "3228-30 WALLACE ST", "PROJECT_TYPE": "Rental", "TOTAL_UNITS": 75, "ACCESSIBLE_UNITS": 8, "SENSORY_UNITS": null, "VISITABLE_UNITS": 8 }, "geometry": { "type": "Point", "coordinates": [ -75.190014258816333, 39.965107832215281 ] } },
{ "type": "Feature", "properties": { "OBJECTID": 36, "FISCAL_YEAR_COMPLETE": 2014, "PROJECT_NAME": "North Phila Complete Blocks - Gratz", "DEVELOPER_NAME": "Habitat for Humanity", "ADDRESS": "1815 N GRATZ ST", "PROJECT_TYPE": "Homeownership", "TOTAL_UNITS": 1, "ACCESSIBLE_UNITS": null, "SENSORY_UNITS": null, "VISITABLE_UNITS": null }, "geometry": { "type": "Point", "coordinates": [ -75.164428823864213, 39.981743243291355 ] } },
{ "type": "Feature", "properties": { "OBJECTID": 37, "FISCAL_YEAR_COMPLETE": 2014, "PROJECT_NAME": "North Phila Complete Blocks - Morse", "DEVELOPER_NAME": "Habitat for Humanity", "ADDRESS": "1900 MORSE ST", "PROJECT_TYPE": "Homeownership", "TOTAL_UNITS": 1, "ACCESSIBLE_UNITS": null, "SENSORY_UNITS": null, "VISITABLE_UNITS": null }, "geometry": { "type": "Point", "coordinates": [ -75.16558514174497, 39.981574881017821 ] } },
{ "type": "Feature", "properties": { "OBJECTID": 38, "FISCAL_YEAR_COMPLETE": 2014, "PROJECT_NAME": "Fattah Homes II", "DEVELOPER_NAME": "PEC", "ADDRESS": "3811-13 HAVERFORD AVE", "PROJECT_TYPE": "Special Needs", "TOTAL_UNITS": 6, "ACCESSIBLE_UNITS": null, "SENSORY_UNITS": null, "VISITABLE_UNITS": null }, "geometry": { "type": "Point", "coordinates": [ -75.197893423785004, 39.963624400033304 ] } },
{ "type": "Feature", "properties": { "OBJECTID": 39, "FISCAL_YEAR_COMPLETE": 2014, "PROJECT_NAME": "Walnut Park Plaza", "DEVELOPER_NAME": "Walnut Park Plaza LLC", "ADDRESS": "6232-50 WALNUT ST", "PROJECT_TYPE": "Rental", "TOTAL_UNITS": 224, "ACCESSIBLE_UNITS": null, "SENSORY_UNITS": null, "VISITABLE_UNITS": null }, "geometry": { "type": "Point", "coordinates": [ -75.246951090034358, 39.959280348282626 ] } },
{ "type": "Feature", "properties": { "OBJECTID": 40, "FISCAL_YEAR_COMPLETE": 2014, "PROJECT_NAME": "Beaumont Initiative", "DEVELOPER_NAME": "The Beaumont Initiative", "ADDRESS": "5015 BEAUMONT ST", "PROJECT_TYPE": "Homeownership", "TOTAL_UNITS": 2, "ACCESSIBLE_UNITS": null, "SENSORY_UNITS": null, "VISITABLE_UNITS": null }, "geometry": { "type": "Point", "coordinates": [ -75.221692685738148, 39.945768615162741 ] } },
{ "type": "Feature", "properties": { "OBJECTID": 41, "FISCAL_YEAR_COMPLETE": 2014, "PROJECT_NAME": "Liberty at Disston", "DEVELOPER_NAME": "Liberty Housing Dev Corp", "ADDRESS": "4800-04 DISSTON ST", "PROJECT_TYPE": "Special Needs", "TOTAL_UNITS": 5, "ACCESSIBLE_UNITS": null, "SENSORY_UNITS": null, "VISITABLE_UNITS": null }, "geometry": { "type": "Point", "coordinates": [ -75.041614950878383, 40.025195323791003 ] } },
{ "type": "Feature", "properties": { "OBJECTID": 42, "FISCAL_YEAR_COMPLETE": 2014, "PROJECT_NAME": "Liberty at Welsh Road", "DEVELOPER_NAME": "Liberty Housing Dev Corp", "ADDRESS": "2628 WELSH RD", "PROJECT_TYPE": "Special Needs", "TOTAL_UNITS": 2, "ACCESSIBLE_UNITS": null, "SENSORY_UNITS": null, "VISITABLE_UNITS": null }, "geometry": { "type": "Point", "coordinates": [ -75.031926731519988, 40.070080097361938 ] } },
{ "type": "Feature", "properties": { "OBJECTID": 43, "FISCAL_YEAR_COMPLETE": 2014, "PROJECT_NAME": "Nicetown Court II", "DEVELOPER_NAME": "Nicetown CDC", "ADDRESS": "4428-70 GERMANTOWN AVE", "PROJECT_TYPE": "Rental", "TOTAL_UNITS": 50, "ACCESSIBLE_UNITS": null, "SENSORY_UNITS": null, "VISITABLE_UNITS": null }, "geometry": { "type": "Point", "coordinates": [ -75.158797805666396, 40.022123223152775 ] } },
{ "type": "Feature", "properties": { "OBJECTID": 44, "FISCAL_YEAR_COMPLETE": 2014, "PROJECT_NAME": "Paseo Verde", "DEVELOPER_NAME": "APM", "ADDRESS": "1900 N 9TH ST", "PROJECT_TYPE": "Rental", "TOTAL_UNITS": 53, "ACCESSIBLE_UNITS": null, "SENSORY_UNITS": null, "VISITABLE_UNITS": null }, "geometry": { "type": "Point", "coordinates": [ -75.148991790308315, 39.981447008614126 ] } },
{ "type": "Feature", "properties": { "OBJECTID": 45, "FISCAL_YEAR_COMPLETE": 2014, "PROJECT_NAME": "Preservation Projects", "DEVELOPER_NAME": "Project HOME", "ADDRESS": "1515-21 FAIRMOUNT AVE", "PROJECT_TYPE": "Special Needs", "TOTAL_UNITS": 112, "ACCESSIBLE_UNITS": null, "SENSORY_UNITS": null, "VISITABLE_UNITS": null }, "geometry": { "type": "Point", "coordinates": [ -75.162867038601206, 39.967449545836324 ] } },
{ "type": "Feature", "properties": { "OBJECTID": 46, "FISCAL_YEAR_COMPLETE": 2014, "PROJECT_NAME": "Tillmon Villanueva Townhomes", "DEVELOPER_NAME": "WCRP", "ADDRESS": "701-17 W SOMERSET ST", "PROJECT_TYPE": "Special Needs", "TOTAL_UNITS": 77, "ACCESSIBLE_UNITS": null, "SENSORY_UNITS": null, "VISITABLE_UNITS": null }, "geometry": { "type": "Point", "coordinates": [ -75.143724593199906, 39.994534724009874 ] } },
{ "type": "Feature", "properties": { "OBJECTID": 47, "FISCAL_YEAR_COMPLETE": 2014, "PROJECT_NAME": "Paseo Verde NMTC", "DEVELOPER_NAME": "APM", "ADDRESS": "1900 N 9TH ST", "PROJECT_TYPE": "Rental", "TOTAL_UNITS": 67, "ACCESSIBLE_UNITS": null, "SENSORY_UNITS": null, "VISITABLE_UNITS": null }, "geometry": { "type": "Point", "coordinates": [ -75.148991790308315, 39.981447008614126 ] } },
{ "type": "Feature", "properties": { "OBJECTID": 48, "FISCAL_YEAR_COMPLETE": 2014, "PROJECT_NAME": "JBJ Soul Homes", "DEVELOPER_NAME": "Project HOME", "ADDRESS": "1415 FAIRMOUNT AVE", "PROJECT_TYPE": "Special Needs", "TOTAL_UNITS": 55, "ACCESSIBLE_UNITS": null, "SENSORY_UNITS": null, "VISITABLE_UNITS": null }, "geometry": { "type": "Point", "coordinates": [ -75.161697644108486, 39.967402579931424 ] } },
{ "type": "Feature", "properties": { "OBJECTID": 49, "FISCAL_YEAR_COMPLETE": 2014, "PROJECT_NAME": "John Anderson\/William Way Senior", "DEVELOPER_NAME": "Pennrose", "ADDRESS": "249-57 S 13TH ST", "PROJECT_TYPE": "Rental", "TOTAL_UNITS": 56, "ACCESSIBLE_UNITS": null, "SENSORY_UNITS": null, "VISITABLE_UNITS": null }, "geometry": { "type": "Point", "coordinates": [ -75.162160547365673, 39.947138253405654 ] } },
{ "type": "Feature", "properties": { "OBJECTID": 50, "FISCAL_YEAR_COMPLETE": 2014, "PROJECT_NAME": "Merrick Hall Renovations", "DEVELOPER_NAME": "Northern Children Services", "ADDRESS": "5301 RIDGE AVE", "PROJECT_TYPE": "Special Needs", "TOTAL_UNITS": 12, "ACCESSIBLE_UNITS": null, "SENSORY_UNITS": null, "VISITABLE_UNITS": null }, "geometry": { "type": "Point", "coordinates": [ -75.208580056340324, 40.021052393097904 ] } },
{ "type": "Feature", "properties": { "OBJECTID": 51, "FISCAL_YEAR_COMPLETE": 2014, "PROJECT_NAME": "North Phila Complete Blocks - Wilt", "DEVELOPER_NAME": "Habitat for Humanity", "ADDRESS": "1905 W WILT ST", "PROJECT_TYPE": "Homeownership", "TOTAL_UNITS": 2, "ACCESSIBLE_UNITS": null, "SENSORY_UNITS": null, "VISITABLE_UNITS": null }, "geometry": { "type": "Point", "coordinates": [ -75.165580952588684, 39.982081687034622 ] } },
{ "type": "Feature", "properties": { "OBJECTID": 52, "FISCAL_YEAR_COMPLETE": 2014, "PROJECT_NAME": "Nugent Senior Center", "DEVELOPER_NAME": "Nolan Properties", "ADDRESS": "221 W JOHNSON ST", "PROJECT_TYPE": "Rental", "TOTAL_UNITS": 57, "ACCESSIBLE_UNITS": null, "SENSORY_UNITS": null, "VISITABLE_UNITS": null }, "geometry": { "type": "Point", "coordinates": [ -75.18624273294661, 40.042520803850927 ] } },
{ "type": "Feature", "properties": { "OBJECTID": 53, "FISCAL_YEAR_COMPLETE": 2014, "PROJECT_NAME": "Lehigh Park I Repairs", "DEVELOPER_NAME": "HACE", "ADDRESS": "2600-20 N LAWRENCE ST", "PROJECT_TYPE": "Rental", "TOTAL_UNITS": 48, "ACCESSIBLE_UNITS": null, "SENSORY_UNITS": null, "VISITABLE_UNITS": null }, "geometry": { "type": "Point", "coordinates": [ -75.139811466895409, 39.990730125137951 ] } },
{ "type": "Feature", "properties": { "OBJECTID": 54, "FISCAL_YEAR_COMPLETE": 2014, "PROJECT_NAME": "Sartain Apartments", "DEVELOPER_NAME": "NewCourtland Elder Services", "ADDRESS": "3017-45 W OXFORD ST", "PROJECT_TYPE": "Rental", "TOTAL_UNITS": 35, "ACCESSIBLE_UNITS": null, "SENSORY_UNITS": null, "VISITABLE_UNITS": null }, "geometry": { "type": "Point", "coordinates": [ -75.184673138440331, 39.981042015596337 ] } },
{ "type": "Feature", "properties": { "OBJECTID": 55, "FISCAL_YEAR_COMPLETE": 2014, "PROJECT_NAME": "Queen and McKeen", "DEVELOPER_NAME": "Habitat for Humanity", "ADDRESS": "424 W QUEEN LN", "PROJECT_TYPE": "Homeownership", "TOTAL_UNITS": 4, "ACCESSIBLE_UNITS": null, "SENSORY_UNITS": null, "VISITABLE_UNITS": null }, "geometry": { "type": "Point", "coordinates": [ -75.175689884809714, 40.024718656908775 ] } },
{ "type": "Feature", "properties": { "OBJECTID": 56, "FISCAL_YEAR_COMPLETE": 2014, "PROJECT_NAME": "Hope Haven Preservation (Preservation Projects) - remove", "DEVELOPER_NAME": "Project HOME", "ADDRESS": "1515 FAIRMOUNT AVE", "PROJECT_TYPE": "Special Needs", "TOTAL_UNITS": 36, "ACCESSIBLE_UNITS": null, "SENSORY_UNITS": null, "VISITABLE_UNITS": null }, "geometry": { "type": "Point", "coordinates": [ -75.162867038601206, 39.967449545836324 ] } },
{ "type": "Feature", "properties": { "OBJECTID": 57, "FISCAL_YEAR_COMPLETE": 2013, "PROJECT_NAME": "Community Ventures - Point Breeze Scattered", "DEVELOPER_NAME": "Community Ventures", "ADDRESS": "1310 S 16TH ST", "PROJECT_TYPE": "Homeownership", "TOTAL_UNITS": 8, "ACCESSIBLE_UNITS": 1, "SENSORY_UNITS": null, "VISITABLE_UNITS": 1 }, "geometry": { "type": "Point", "coordinates": [ -75.171166324600648, 39.934278476604625 ] } },
{ "type": "Feature", "properties": { "OBJECTID": 58, "FISCAL_YEAR_COMPLETE": 2013, "PROJECT_NAME": "North Star Point Breeze", "DEVELOPER_NAME": "North Star", "ADDRESS": "1415 S 20TH ST", "PROJECT_TYPE": "Homeownership", "TOTAL_UNITS": 6, "ACCESSIBLE_UNITS": 1, "SENSORY_UNITS": null, "VISITABLE_UNITS": 1 }, "geometry": { "type": "Point", "coordinates": [ -75.177278286106542, 39.933653467191895 ] } },
{ "type": "Feature", "properties": { "OBJECTID": 59, "FISCAL_YEAR_COMPLETE": 2013, "PROJECT_NAME": "Forgotten Blocks III", "DEVELOPER_NAME": "Allegheny West Foundation", "ADDRESS": "2722 N GARNET ST", "PROJECT_TYPE": "Homeownership", "TOTAL_UNITS": 5, "ACCESSIBLE_UNITS": null, "SENSORY_UNITS": null, "VISITABLE_UNITS": null }, "geometry": { "type": "Point", "coordinates": [ -75.163066022442436, 39.995674285150635 ] } },
{ "type": "Feature", "properties": { "OBJECTID": 60, "FISCAL_YEAR_COMPLETE": 2013, "PROJECT_NAME": "Roxborough Redevelopment", "DEVELOPER_NAME": "Octavia Hill", "ADDRESS": "376-86 DUPONT ST", "PROJECT_TYPE": "Rental", "TOTAL_UNITS": 6, "ACCESSIBLE_UNITS": null, "SENSORY_UNITS": null, "VISITABLE_UNITS": null }, "geometry": { "type": "Point", "coordinates": [ -75.219938978197305, 40.032606515931789 ] } },
{ "type": "Feature", "properties": { "OBJECTID": 61, "FISCAL_YEAR_COMPLETE": 2013, "PROJECT_NAME": "WPRE III", "DEVELOPER_NAME": "WPRE", "ADDRESS": "117 N 50TH ST", "PROJECT_TYPE": "Rental", "TOTAL_UNITS": 60, "ACCESSIBLE_UNITS": null, "SENSORY_UNITS": null, "VISITABLE_UNITS": null }, "geometry": { "type": "Point", "coordinates": [ -75.220133643216883, 39.961647212145131 ] } },
{ "type": "Feature", "properties": { "OBJECTID": 62, "FISCAL_YEAR_COMPLETE": 2013, "PROJECT_NAME": "Gaudenzia Thompson Street Apts", "DEVELOPER_NAME": "Gaudenzia Foundation", "ADDRESS": "1815 W THOMPSON ST", "PROJECT_TYPE": "Rental", "TOTAL_UNITS": 6, "ACCESSIBLE_UNITS": null, "SENSORY_UNITS": null, "VISITABLE_UNITS": null }, "geometry": { "type": "Point", "coordinates": [ -75.16598741067213, 39.974265605267092 ] } },
{ "type": "Feature", "properties": { "OBJECTID": 63, "FISCAL_YEAR_COMPLETE": 2013, "PROJECT_NAME": "LCIP III", "DEVELOPER_NAME": "Liberty Housing Dev Corp", "ADDRESS": "5526 VINE ST", "PROJECT_TYPE": "Special Needs", "TOTAL_UNITS": 14, "ACCESSIBLE_UNITS": null, "SENSORY_UNITS": null, "VISITABLE_UNITS": null }, "geometry": { "type": "Point", "coordinates": [ -75.231187439449059, 39.965253731841266 ] } },
{ "type": "Feature", "properties": { "OBJECTID": 64, "FISCAL_YEAR_COMPLETE": 2013, "PROJECT_NAME": "St. Maron Hall", "DEVELOPER_NAME": "Ingerman", "ADDRESS": "921-31 ELLSWORTH ST", "PROJECT_TYPE": "Rental", "TOTAL_UNITS": 64, "ACCESSIBLE_UNITS": null, "SENSORY_UNITS": null, "VISITABLE_UNITS": null }, "geometry": { "type": "Point", "coordinates": [ -75.159412287560741, 39.935725612289311 ] } },
{ "type": "Feature", "properties": { "OBJECTID": 65, "FISCAL_YEAR_COMPLETE": 2013, "PROJECT_NAME": "Eli Apartments", "DEVELOPER_NAME": "Iron Stone Capital Partners", "ADDRESS": "1418 CONLYN ST", "PROJECT_TYPE": "Rental", "TOTAL_UNITS": 88, "ACCESSIBLE_UNITS": null, "SENSORY_UNITS": null, "VISITABLE_UNITS": null }, "geometry": { "type": "Point", "coordinates": [ -75.145244909068907, 40.042196787683814 ] } },
{ "type": "Feature", "properties": { "OBJECTID": 66, "FISCAL_YEAR_COMPLETE": 2013, "PROJECT_NAME": "Sojourner House", "DEVELOPER_NAME": "Women Against Abuse", "ADDRESS": "6027-33 GERMANTOWN AVE", "PROJECT_TYPE": "Special Needs", "TOTAL_UNITS": 15, "ACCESSIBLE_UNITS": null, "SENSORY_UNITS": null, "VISITABLE_UNITS": null }, "geometry": { "type": "Point", "coordinates": [ -75.1780717834081, 40.040387626581037 ] } },
{ "type": "Feature", "properties": { "OBJECTID": 67, "FISCAL_YEAR_COMPLETE": 2013, "PROJECT_NAME": "3909 Haverford Rehab", "DEVELOPER_NAME": "PEC", "ADDRESS": "3909 HAVERFORD AVE", "PROJECT_TYPE": "Rental", "TOTAL_UNITS": 6, "ACCESSIBLE_UNITS": null, "SENSORY_UNITS": null, "VISITABLE_UNITS": null }, "geometry": { "type": "Point", "coordinates": [ -75.200118717335798, 39.963313726959257 ] } },
{ "type": "Feature", "properties": { "OBJECTID": 68, "FISCAL_YEAR_COMPLETE": 2013, "PROJECT_NAME": "Homeownership Rehabilitation Program", "DEVELOPER_NAME": "Various", "ADDRESS": "Scattered", "PROJECT_TYPE": "Homeownership", "TOTAL_UNITS": null, "ACCESSIBLE_UNITS": null, "SENSORY_UNITS": null, "VISITABLE_UNITS": null }, "geometry": null },
{ "type": "Feature", "properties": { "OBJECTID": 69, "FISCAL_YEAR_COMPLETE": 2012, "PROJECT_NAME": "4200 Stiles", "DEVELOPER_NAME": "Habitat for Humanity", "ADDRESS": "4211 W STILES ST", "PROJECT_TYPE": "Homeownership", "TOTAL_UNITS": 2, "ACCESSIBLE_UNITS": null, "SENSORY_UNITS": null, "VISITABLE_UNITS": null }, "geometry": { "type": "Point", "coordinates": [ -75.210524834121259, 39.974451517058483 ] } },
{ "type": "Feature", "properties": { "OBJECTID": 70, "FISCAL_YEAR_COMPLETE": 2012, "PROJECT_NAME": "Pilgrim Gardens Senior", "DEVELOPER_NAME": "Pilgrim Gardens", "ADDRESS": "7023 RISING SUN AVE", "PROJECT_TYPE": "Rental", "TOTAL_UNITS": 62, "ACCESSIBLE_UNITS": null, "SENSORY_UNITS": null, "VISITABLE_UNITS": null }, "geometry": { "type": "Point", "coordinates": [ -75.087444806362257, 40.057351952315919 ] } },
{ "type": "Feature", "properties": { "OBJECTID": 71, "FISCAL_YEAR_COMPLETE": 2012, "PROJECT_NAME": "Sheridan Street", "DEVELOPER_NAME": "Pradera Corporation", "ADDRESS": "1807 N SHERIDAN ST", "PROJECT_TYPE": "Homeownership", "TOTAL_UNITS": 13, "ACCESSIBLE_UNITS": null, "SENSORY_UNITS": null, "VISITABLE_UNITS": null }, "geometry": { "type": "Point", "coordinates": [ -75.146025654515498, 39.979121794713031 ] } },
{ "type": "Feature", "properties": { "OBJECTID": 72, "FISCAL_YEAR_COMPLETE": 2012, "PROJECT_NAME": "Gloria's Place\/3902 Spring Garden", "DEVELOPER_NAME": "PEC", "ADDRESS": "3902 SPRING GARDEN ST", "PROJECT_TYPE": "Special Needs", "TOTAL_UNITS": 11, "ACCESSIBLE_UNITS": null, "SENSORY_UNITS": null, "VISITABLE_UNITS": null }, "geometry": { "type": "Point", "coordinates": [ -75.200770572224243, 39.961711383341125 ] } },
{ "type": "Feature", "properties": { "OBJECTID": 73, "FISCAL_YEAR_COMPLETE": 2012, "PROJECT_NAME": "Apartments at Cliveden", "DEVELOPER_NAME": "NewCourtland Elder Services", "ADDRESS": "315 W JOHNSON ST", "PROJECT_TYPE": "Rental", "TOTAL_UNITS": 62, "ACCESSIBLE_UNITS": null, "SENSORY_UNITS": null, "VISITABLE_UNITS": null }, "geometry": { "type": "Point", "coordinates": [ -75.188449757230117, 40.04060797425339 ] } },
{ "type": "Feature", "properties": { "OBJECTID": 74, "FISCAL_YEAR_COMPLETE": 2012, "PROJECT_NAME": "Chandler Supported Living 811", "DEVELOPER_NAME": "11260 Housing Development Corporation", "ADDRESS": "419 CHANDLER ST", "PROJECT_TYPE": "Special Needs", "TOTAL_UNITS": 6, "ACCESSIBLE_UNITS": null, "SENSORY_UNITS": null, "VISITABLE_UNITS": null }, "geometry": { "type": "Point", "coordinates": [ -75.085721917829304, 40.07365794451681 ] } },
{ "type": "Feature", "properties": { "OBJECTID": 75, "FISCAL_YEAR_COMPLETE": 2012, "PROJECT_NAME": "Jannie's Place", "DEVELOPER_NAME": "PEC", "ADDRESS": "3902-14 SPRING GARDEN ST", "PROJECT_TYPE": "Special Needs", "TOTAL_UNITS": 29, "ACCESSIBLE_UNITS": null, "SENSORY_UNITS": null, "VISITABLE_UNITS": null }, "geometry": { "type": "Point", "coordinates": [ -75.200770572224243, 39.961711383341125 ] } },
{ "type": "Feature", "properties": { "OBJECTID": 76, "FISCAL_YEAR_COMPLETE": 2012, "PROJECT_NAME": "Latona Street Project", "DEVELOPER_NAME": "Habitat for Humanity", "ADDRESS": "2240 LATONA ST", "PROJECT_TYPE": "Homeownership", "TOTAL_UNITS": 4, "ACCESSIBLE_UNITS": null, "SENSORY_UNITS": null, "VISITABLE_UNITS": null }, "geometry": { "type": "Point", "coordinates": [ -75.181634782430223, 39.936603358330359 ] } },
{ "type": "Feature", "properties": { "OBJECTID": 77, "FISCAL_YEAR_COMPLETE": 2012, "PROJECT_NAME": "Nicetown Court", "DEVELOPER_NAME": "Nicetown CDC", "ADDRESS": "4330-50 GERMANTOWN AVE", "PROJECT_TYPE": "Rental", "TOTAL_UNITS": 37, "ACCESSIBLE_UNITS": null, "SENSORY_UNITS": null, "VISITABLE_UNITS": null }, "geometry": { "type": "Point", "coordinates": [ -75.156943254840698, 40.020059273758285 ] } },
{ "type": "Feature", "properties": { "OBJECTID": 78, "FISCAL_YEAR_COMPLETE": 2012, "PROJECT_NAME": "Ogden Gardens", "DEVELOPER_NAME": "Autism Living and Working", "ADDRESS": "4033 OGDEN ST", "PROJECT_TYPE": "Special Needs", "TOTAL_UNITS": 4, "ACCESSIBLE_UNITS": null, "SENSORY_UNITS": null, "VISITABLE_UNITS": null }, "geometry": { "type": "Point", "coordinates": [ -75.204870285959259, 39.969543415604917 ] } },
{ "type": "Feature", "properties": { "OBJECTID": 79, "FISCAL_YEAR_COMPLETE": 2012, "PROJECT_NAME": "Strawberry Mansion I", "DEVELOPER_NAME": "Friends Rehabilitation Program", "ADDRESS": "1900 N 31ST ST", "PROJECT_TYPE": "Homeownership", "TOTAL_UNITS": 25, "ACCESSIBLE_UNITS": null, "SENSORY_UNITS": null, "VISITABLE_UNITS": null }, "geometry": { "type": "Point", "coordinates": [ -75.184630054532661, 39.985370374432577 ] } },
{ "type": "Feature", "properties": { "OBJECTID": 80, "FISCAL_YEAR_COMPLETE": 2012, "PROJECT_NAME": "WPRE II", "DEVELOPER_NAME": "WPRE", "ADDRESS": "673 N 37TH ST", "PROJECT_TYPE": "Rental", "TOTAL_UNITS": 40, "ACCESSIBLE_UNITS": null, "SENSORY_UNITS": null, "VISITABLE_UNITS": null }, "geometry": { "type": "Point", "coordinates": [ -75.196149777655677, 39.96561838808865 ] } },
{ "type": "Feature", "properties": { "OBJECTID": 81, "FISCAL_YEAR_COMPLETE": 2012, "PROJECT_NAME": "Lehigh Park II Repairs", "DEVELOPER_NAME": "HACE", "ADDRESS": "2622 N LAWRENCE ST", "PROJECT_TYPE": "Rental", "TOTAL_UNITS": 28, "ACCESSIBLE_UNITS": null, "SENSORY_UNITS": null, "VISITABLE_UNITS": null }, "geometry": { "type": "Point", "coordinates": [ -75.139681319775192, 39.991195836869686 ] } },
{ "type": "Feature", "properties": { "OBJECTID": 82, "FISCAL_YEAR_COMPLETE": 2012, "PROJECT_NAME": "Patriot House", "DEVELOPER_NAME": "Catch", "ADDRESS": "1221-25 S 15TH ST", "PROJECT_TYPE": "Special Needs", "TOTAL_UNITS": 15, "ACCESSIBLE_UNITS": null, "SENSORY_UNITS": null, "VISITABLE_UNITS": null }, "geometry": { "type": "Point", "coordinates": [ -75.168721695753874, 39.935071873044627 ] } },
{ "type": "Feature", "properties": { "OBJECTID": 83, "FISCAL_YEAR_COMPLETE": 2012, "PROJECT_NAME": "Belfield Avenue Townhomes", "DEVELOPER_NAME": "Raise of Hope", "ADDRESS": "1735 BELFIELD AVE", "PROJECT_TYPE": "Special Needs", "TOTAL_UNITS": 3, "ACCESSIBLE_UNITS": null, "SENSORY_UNITS": null, "VISITABLE_UNITS": null }, "geometry": { "type": "Point", "coordinates": [ -75.152483292352485, 40.029398260316661 ] } },
{ "type": "Feature", "properties": { "OBJECTID": 84, "FISCAL_YEAR_COMPLETE": 2012, "PROJECT_NAME": "17th & Federal", "DEVELOPER_NAME": "Community Ventures", "ADDRESS": "1220 S 17TH ST", "PROJECT_TYPE": "Homeownership", "TOTAL_UNITS": 11, "ACCESSIBLE_UNITS": null, "SENSORY_UNITS": null, "VISITABLE_UNITS": null }, "geometry": { "type": "Point", "coordinates": [ -75.172362653707538, 39.935913924194878 ] } },
{ "type": "Feature", "properties": { "OBJECTID": 85, "FISCAL_YEAR_COMPLETE": 2012, "PROJECT_NAME": "Homeownership Rehabilitation Program", "DEVELOPER_NAME": "Various", "ADDRESS": "Scattered", "PROJECT_TYPE": "Homeownership", "TOTAL_UNITS": 9, "ACCESSIBLE_UNITS": null, "SENSORY_UNITS": null, "VISITABLE_UNITS": null }, "geometry": null },
{ "type": "Feature", "properties": { "OBJECTID": 86, "FISCAL_YEAR_COMPLETE": 2012, "PROJECT_NAME": "James Widener Ray\/2101 Venango", "DEVELOPER_NAME": "Project HOME", "ADDRESS": "2101 W VENANGO ST", "PROJECT_TYPE": "Special Needs", "TOTAL_UNITS": 53, "ACCESSIBLE_UNITS": null, "SENSORY_UNITS": null, "VISITABLE_UNITS": null }, "geometry": { "type": "Point", "coordinates": [ -75.163060233241012, 40.00953370317248 ] } },
{ "type": "Feature", "properties": { "OBJECTID": 87, "FISCAL_YEAR_COMPLETE": 2012, "PROJECT_NAME": "Point Breeze Homeownership", "DEVELOPER_NAME": "Cashel", "ADDRESS": "1215 S 27TH ST", "PROJECT_TYPE": "Homeownership", "TOTAL_UNITS": 5, "ACCESSIBLE_UNITS": null, "SENSORY_UNITS": null, "VISITABLE_UNITS": null }, "geometry": { "type": "Point", "coordinates": [ -75.188389276855119, 39.938353293770447 ] } },
{ "type": "Feature", "properties": { "OBJECTID": 88, "FISCAL_YEAR_COMPLETE": 2012, "PROJECT_NAME": "Shelton Court", "DEVELOPER_NAME": "Gaudenzia Foundation", "ADDRESS": "6433 N BROAD ST", "PROJECT_TYPE": "Special Needs", "TOTAL_UNITS": 20, "ACCESSIBLE_UNITS": null, "SENSORY_UNITS": null, "VISITABLE_UNITS": null }, "geometry": { "type": "Point", "coordinates": [ -75.141663360389629, 40.050918942933642 ] } },
{ "type": "Feature", "properties": { "OBJECTID": 89, "FISCAL_YEAR_COMPLETE": 2011, "PROJECT_NAME": "Cecil B. Moore III-3", "DEVELOPER_NAME": "HERB CDC", "ADDRESS": "1900 HARLAN ST", "PROJECT_TYPE": "Homeownership", "TOTAL_UNITS": 33, "ACCESSIBLE_UNITS": null, "SENSORY_UNITS": null, "VISITABLE_UNITS": null }, "geometry": { "type": "Point", "coordinates": [ -75.166817073227037, 39.975987806026517 ] } },
{ "type": "Feature", "properties": { "OBJECTID": 90, "FISCAL_YEAR_COMPLETE": 2011, "PROJECT_NAME": "Diamond Street Initiative", "DEVELOPER_NAME": "Pennrose", "ADDRESS": "3113 DIAMOND ST", "PROJECT_TYPE": "Rental", "TOTAL_UNITS": 49, "ACCESSIBLE_UNITS": null, "SENSORY_UNITS": null, "VISITABLE_UNITS": null }, "geometry": { "type": "Point", "coordinates": [ -75.184230907804306, 39.988515119589593 ] } },
{ "type": "Feature", "properties": { "OBJECTID": 91, "FISCAL_YEAR_COMPLETE": 2011, "PROJECT_NAME": "Hancock Manor", "DEVELOPER_NAME": "Impact Services Corp", "ADDRESS": "164-76 W ALLEGHENY AVE", "PROJECT_TYPE": "Special Needs", "TOTAL_UNITS": 45, "ACCESSIBLE_UNITS": null, "SENSORY_UNITS": null, "VISITABLE_UNITS": null }, "geometry": { "type": "Point", "coordinates": [ -75.132559489077678, 39.998657046021052 ] } },
{ "type": "Feature", "properties": { "OBJECTID": 92, "FISCAL_YEAR_COMPLETE": 2011, "PROJECT_NAME": "My Place in Germantown", "DEVELOPER_NAME": "Community Ventures", "ADDRESS": "209 E PRICE ST", "PROJECT_TYPE": "Special Needs", "TOTAL_UNITS": 12, "ACCESSIBLE_UNITS": null, "SENSORY_UNITS": null, "VISITABLE_UNITS": null }, "geometry": { "type": "Point", "coordinates": [ -75.17359753495704, 40.038998713615626 ] } },
{ "type": "Feature", "properties": { "OBJECTID": 93, "FISCAL_YEAR_COMPLETE": 2011, "PROJECT_NAME": "Osun Village Senior", "DEVELOPER_NAME": "Odunde, Universal", "ADDRESS": "2308 GRAYS FERRY AVE", "PROJECT_TYPE": "Rental", "TOTAL_UNITS": 16, "ACCESSIBLE_UNITS": null, "SENSORY_UNITS": null, "VISITABLE_UNITS": null }, "geometry": { "type": "Point", "coordinates": [ -75.180290350581515, 39.945083027868499 ] } },
{ "type": "Feature", "properties": { "OBJECTID": 94, "FISCAL_YEAR_COMPLETE": 2011, "PROJECT_NAME": "St. John the Evangelist House", "DEVELOPER_NAME": "Project HOME", "ADDRESS": "1212 LUDLOW ST", "PROJECT_TYPE": "Special Needs", "TOTAL_UNITS": 79, "ACCESSIBLE_UNITS": null, "SENSORY_UNITS": null, "VISITABLE_UNITS": null }, "geometry": { "type": "Point", "coordinates": [ -75.160845349090479, 39.951187079923486 ] } },
{ "type": "Feature", "properties": { "OBJECTID": 95, "FISCAL_YEAR_COMPLETE": 2011, "PROJECT_NAME": "Casa Farnese 202", "DEVELOPER_NAME": "Casa Farnese", "ADDRESS": "1300-28 LOMBARD ST", "PROJECT_TYPE": "Rental", "TOTAL_UNITS": 288, "ACCESSIBLE_UNITS": null, "SENSORY_UNITS": null, "VISITABLE_UNITS": null }, "geometry": { "type": "Point", "coordinates": [ -75.163701315688243, 39.944222364434609 ] } },
{ "type": "Feature", "properties": { "OBJECTID": 96, "FISCAL_YEAR_COMPLETE": 2011, "PROJECT_NAME": "Presser Senior", "DEVELOPER_NAME": "Philadelphia Preservation", "ADDRESS": "101 W JOHNSON ST", "PROJECT_TYPE": "Rental", "TOTAL_UNITS": 45, "ACCESSIBLE_UNITS": null, "SENSORY_UNITS": null, "VISITABLE_UNITS": null }, "geometry": { "type": "Point", "coordinates": [ -75.185739793621806, 40.042868809066796 ] } },
{ "type": "Feature", "properties": { "OBJECTID": 97, "FISCAL_YEAR_COMPLETE": 2011, "PROJECT_NAME": "Evelyn Saunders Townhouses II", "DEVELOPER_NAME": "WCRP", "ADDRESS": "3029 N PERCY ST", "PROJECT_TYPE": "Special Needs", "TOTAL_UNITS": 31, "ACCESSIBLE_UNITS": null, "SENSORY_UNITS": null, "VISITABLE_UNITS": null }, "geometry": { "type": "Point", "coordinates": [ -75.14535313080259, 39.998271149415402 ] } },
{ "type": "Feature", "properties": { "OBJECTID": 98, "FISCAL_YEAR_COMPLETE": 2011, "PROJECT_NAME": "Francisville East", "DEVELOPER_NAME": "Community Ventures", "ADDRESS": "1500 POPLAR ST", "PROJECT_TYPE": "Rental", "TOTAL_UNITS": 44, "ACCESSIBLE_UNITS": null, "SENSORY_UNITS": null, "VISITABLE_UNITS": null }, "geometry": { "type": "Point", "coordinates": [ -75.161882335476975, 39.970284332905436 ] } },
{ "type": "Feature", "properties": { "OBJECTID": 99, "FISCAL_YEAR_COMPLETE": 2011, "PROJECT_NAME": "HELP Philadelphia", "DEVELOPER_NAME": "HELP USA", "ADDRESS": "6100 EASTWICK AVE", "PROJECT_TYPE": "Special Needs", "TOTAL_UNITS": 63, "ACCESSIBLE_UNITS": null, "SENSORY_UNITS": null, "VISITABLE_UNITS": null }, "geometry": { "type": "Point", "coordinates": [ -75.220625844342251, 39.922253054695602 ] } },
{ "type": "Feature", "properties": { "OBJECTID": 100, "FISCAL_YEAR_COMPLETE": 2011, "PROJECT_NAME": "Lawrence Court", "DEVELOPER_NAME": "HACE", "ADDRESS": "3301 N LAWRENCE ST", "PROJECT_TYPE": "Homeownership", "TOTAL_UNITS": 50, "ACCESSIBLE_UNITS": null, "SENSORY_UNITS": null, "VISITABLE_UNITS": null }, "geometry": { "type": "Point", "coordinates": [ -75.13698672957463, 40.001294794325226 ] } },
{ "type": "Feature", "properties": { "OBJECTID": 101, "FISCAL_YEAR_COMPLETE": 2011, "PROJECT_NAME": "Rites of Passage", "DEVELOPER_NAME": "Covenant House", "ADDRESS": "2625 KENSINGTON AVE", "PROJECT_TYPE": "Special Needs", "TOTAL_UNITS": 10, "ACCESSIBLE_UNITS": null, "SENSORY_UNITS": null, "VISITABLE_UNITS": null }, "geometry": { "type": "Point", "coordinates": [ -75.126540803856003, 39.989031250512717 ] } },
{ "type": "Feature", "properties": { "OBJECTID": 102, "FISCAL_YEAR_COMPLETE": 2011, "PROJECT_NAME": "Strawberry Mansion 32nd & CBM", "DEVELOPER_NAME": "Community Ventures", "ADDRESS": "1631 N 32ND ST", "PROJECT_TYPE": "Homeownership", "TOTAL_UNITS": 11, "ACCESSIBLE_UNITS": null, "SENSORY_UNITS": null, "VISITABLE_UNITS": null }, "geometry": { "type": "Point", "coordinates": [ -75.186569550068, 39.981868381936259 ] } },
{ "type": "Feature", "properties": { "OBJECTID": 103, "FISCAL_YEAR_COMPLETE": 2011, "PROJECT_NAME": "Homeownership Rehabilitation Program", "DEVELOPER_NAME": "Various", "ADDRESS": "Scattered", "PROJECT_TYPE": "Homeownership", "TOTAL_UNITS": 8, "ACCESSIBLE_UNITS": null, "SENSORY_UNITS": null, "VISITABLE_UNITS": null }, "geometry": null },
{ "type": "Feature", "properties": { "OBJECTID": 104, "FISCAL_YEAR_COMPLETE": 2011, "PROJECT_NAME": "Pennsdale II Rent Reserve", "DEVELOPER_NAME": "Intercommunity Action", "ADDRESS": "4200 MITCHELL ST", "PROJECT_TYPE": "Rental", "TOTAL_UNITS": 10, "ACCESSIBLE_UNITS": null, "SENSORY_UNITS": null, "VISITABLE_UNITS": null }, "geometry": { "type": "Point", "coordinates": [ -75.212991128856217, 40.027956579036612 ] } },
{ "type": "Feature", "properties": { "OBJECTID": 105, "FISCAL_YEAR_COMPLETE": 2010, "PROJECT_NAME": "Gaudenzia - Venango Place", "DEVELOPER_NAME": "Gaudenzia Foundation", "ADDRESS": "2100 W VENANGO ST", "PROJECT_TYPE": "Special Needs", "TOTAL_UNITS": 21, "ACCESSIBLE_UNITS": null, "SENSORY_UNITS": null, "VISITABLE_UNITS": null }, "geometry": { "type": "Point", "coordinates": [ -75.163313177024847, 40.008948749043547 ] } },
{ "type": "Feature", "properties": { "OBJECTID": 106, "FISCAL_YEAR_COMPLETE": 2010, "PROJECT_NAME": "Union Hill Homes", "DEVELOPER_NAME": "Homeownership Developers LP", "ADDRESS": "3901 ASPEN ST", "PROJECT_TYPE": "Homeownership", "TOTAL_UNITS": 51, "ACCESSIBLE_UNITS": null, "SENSORY_UNITS": null, "VISITABLE_UNITS": null }, "geometry": { "type": "Point", "coordinates": [ -75.200552512567768, 39.966747297824718 ] } },
{ "type": "Feature", "properties": { "OBJECTID": 107, "FISCAL_YEAR_COMPLETE": 2010, "PROJECT_NAME": "Cecil B. Moore III-2", "DEVELOPER_NAME": "HERB CDC", "ADDRESS": "1704 N 19TH ST", "PROJECT_TYPE": "Homeownership", "TOTAL_UNITS": 54, "ACCESSIBLE_UNITS": null, "SENSORY_UNITS": null, "VISITABLE_UNITS": null }, "geometry": { "type": "Point", "coordinates": [ -75.166008078829066, 39.98015423220415 ] } },
{ "type": "Feature", "properties": { "OBJECTID": 108, "FISCAL_YEAR_COMPLETE": 2010, "PROJECT_NAME": "Life Center", "DEVELOPER_NAME": "HACE", "ADDRESS": "3240 N HANCOCK ST", "PROJECT_TYPE": "Rental", "TOTAL_UNITS": 0, "ACCESSIBLE_UNITS": null, "SENSORY_UNITS": null, "VISITABLE_UNITS": null }, "geometry": { "type": "Point", "coordinates": [ -75.13220270700414, 40.000149333596923 ] } },
{ "type": "Feature", "properties": { "OBJECTID": 109, "FISCAL_YEAR_COMPLETE": 2010, "PROJECT_NAME": "LCIP III 811", "DEVELOPER_NAME": "Liberty Housing Dev Corp", "ADDRESS": "1100 S BROAD ST", "PROJECT_TYPE": "Rental", "TOTAL_UNITS": 11, "ACCESSIBLE_UNITS": null, "SENSORY_UNITS": null, "VISITABLE_UNITS": null }, "geometry": { "type": "Point", "coordinates": [ -75.167797401507855, 39.93757065675473 ] } },
{ "type": "Feature", "properties": { "OBJECTID": 110, "FISCAL_YEAR_COMPLETE": 2010, "PROJECT_NAME": "Pennsdale II", "DEVELOPER_NAME": "Intercommunity Action", "ADDRESS": "4200 MITCHELL ST", "PROJECT_TYPE": "Rental", "TOTAL_UNITS": 38, "ACCESSIBLE_UNITS": null, "SENSORY_UNITS": null, "VISITABLE_UNITS": null }, "geometry": { "type": "Point", "coordinates": [ -75.212991128856217, 40.027956579036612 ] } },
{ "type": "Feature", "properties": { "OBJECTID": 111, "FISCAL_YEAR_COMPLETE": 2010, "PROJECT_NAME": "Spring Garden II", "DEVELOPER_NAME": "Michaels Development", "ADDRESS": "1602 MOUNT VERNON ST", "PROJECT_TYPE": "Rental", "TOTAL_UNITS": 58, "ACCESSIBLE_UNITS": null, "SENSORY_UNITS": null, "VISITABLE_UNITS": null }, "geometry": { "type": "Point", "coordinates": [ -75.164464188157211, 39.964737114730887 ] } },
{ "type": "Feature", "properties": { "OBJECTID": 112, "FISCAL_YEAR_COMPLETE": 2010, "PROJECT_NAME": "4008 Haverford", "DEVELOPER_NAME": "PEC, MASCO", "ADDRESS": "4008 HAVERFORD AVE", "PROJECT_TYPE": "Homeownership", "TOTAL_UNITS": 1, "ACCESSIBLE_UNITS": null, "SENSORY_UNITS": null, "VISITABLE_UNITS": null }, "geometry": { "type": "Point", "coordinates": [ -75.202698657328284, 39.962639531947758 ] } },
{ "type": "Feature", "properties": { "OBJECTID": 113, "FISCAL_YEAR_COMPLETE": 2010, "PROJECT_NAME": "Haven Peniel Senior 202", "DEVELOPER_NAME": "Haven Peniel Dev Corp", "ADDRESS": "1615 N 23RD ST", "PROJECT_TYPE": "Rental", "TOTAL_UNITS": 55, "ACCESSIBLE_UNITS": null, "SENSORY_UNITS": null, "VISITABLE_UNITS": null }, "geometry": { "type": "Point", "coordinates": [ -75.172220664933548, 39.979774476978349 ] } },
{ "type": "Feature", "properties": { "OBJECTID": 114, "FISCAL_YEAR_COMPLETE": 2010, "PROJECT_NAME": "Ivy Residence II", "DEVELOPER_NAME": "Salvation Army", "ADDRESS": "4050 CONSHOHOCKEN AVE", "PROJECT_TYPE": "Rental", "TOTAL_UNITS": 53, "ACCESSIBLE_UNITS": null, "SENSORY_UNITS": null, "VISITABLE_UNITS": null }, "geometry": { "type": "Point", "coordinates": [ -75.212781361836178, 40.001210116300292 ] } },
{ "type": "Feature", "properties": { "OBJECTID": 115, "FISCAL_YEAR_COMPLETE": 2010, "PROJECT_NAME": "Bernice Elza Homes", "DEVELOPER_NAME": "PEC", "ADDRESS": "3803 BRANDYWINE ST", "PROJECT_TYPE": "Special Needs", "TOTAL_UNITS": 6, "ACCESSIBLE_UNITS": null, "SENSORY_UNITS": null, "VISITABLE_UNITS": null }, "geometry": { "type": "Point", "coordinates": [ -75.197654062823204, 39.962948049388771 ] } },
{ "type": "Feature", "properties": { "OBJECTID": 116, "FISCAL_YEAR_COMPLETE": 2010, "PROJECT_NAME": "Dual Diagnosis Program", "DEVELOPER_NAME": "Impact Services Corp", "ADDRESS": "118-60 E INDIANA AVE", "PROJECT_TYPE": "Special Needs", "TOTAL_UNITS": 8, "ACCESSIBLE_UNITS": null, "SENSORY_UNITS": null, "VISITABLE_UNITS": null }, "geometry": { "type": "Point", "coordinates": [ -75.128817358589899, 39.994811763416841 ] } },
{ "type": "Feature", "properties": { "OBJECTID": 117, "FISCAL_YEAR_COMPLETE": 2010, "PROJECT_NAME": "Fattah Homes I", "DEVELOPER_NAME": "PEC", "ADDRESS": "4017 LANCASTER AVE", "PROJECT_TYPE": "Special Needs", "TOTAL_UNITS": 6, "ACCESSIBLE_UNITS": null, "SENSORY_UNITS": null, "VISITABLE_UNITS": null }, "geometry": { "type": "Point", "coordinates": [ -75.202763782595866, 39.963692568330991 ] } },
{ "type": "Feature", "properties": { "OBJECTID": 118, "FISCAL_YEAR_COMPLETE": 2010, "PROJECT_NAME": "Forgotten Blocks II", "DEVELOPER_NAME": "Allegheny West Foundation", "ADDRESS": "1923 W SOMERSET ST", "PROJECT_TYPE": "Homeownership", "TOTAL_UNITS": 15, "ACCESSIBLE_UNITS": null, "SENSORY_UNITS": null, "VISITABLE_UNITS": null }, "geometry": { "type": "Point", "coordinates": [ -75.163022408657454, 39.996840183153466 ] } },
{ "type": "Feature", "properties": { "OBJECTID": 119, "FISCAL_YEAR_COMPLETE": 2010, "PROJECT_NAME": "Homeownership Rehabilitation Program", "DEVELOPER_NAME": "Various", "ADDRESS": "Scattered", "PROJECT_TYPE": "Homeownership", "TOTAL_UNITS": 26, "ACCESSIBLE_UNITS": null, "SENSORY_UNITS": null, "VISITABLE_UNITS": null }, "geometry": null },
{ "type": "Feature", "properties": { "OBJECTID": 120, "FISCAL_YEAR_COMPLETE": 2010, "PROJECT_NAME": "Norris Street", "DEVELOPER_NAME": "PHDC", "ADDRESS": "1601 W NORRIS ST", "PROJECT_TYPE": "Homeownership", "TOTAL_UNITS": 7, "ACCESSIBLE_UNITS": null, "SENSORY_UNITS": null, "VISITABLE_UNITS": null }, "geometry": { "type": "Point", "coordinates": [ -75.160645943432854, 39.983855392260701 ] } },
{ "type": "Feature", "properties": { "OBJECTID": 121, "FISCAL_YEAR_COMPLETE": 2010, "PROJECT_NAME": "Temple I Preservation", "DEVELOPER_NAME": "11260 Housing Development Corporation", "ADDRESS": "1700-04 N 16TH ST", "PROJECT_TYPE": "Rental", "TOTAL_UNITS": 58, "ACCESSIBLE_UNITS": null, "SENSORY_UNITS": null, "VISITABLE_UNITS": null }, "geometry": { "type": "Point", "coordinates": [ -75.161310112324102, 39.979565477696219 ] } },
{ "type": "Feature", "properties": { "OBJECTID": 122, "FISCAL_YEAR_COMPLETE": 2009, "PROJECT_NAME": "Booth Manor II 202", "DEVELOPER_NAME": "Salvation Army", "ADDRESS": "5522 ARCH ST", "PROJECT_TYPE": "Rental", "TOTAL_UNITS": 50, "ACCESSIBLE_UNITS": null, "SENSORY_UNITS": null, "VISITABLE_UNITS": null }, "geometry": { "type": "Point", "coordinates": [ -75.230478858995127, 39.961905108837733 ] } },
{ "type": "Feature", "properties": { "OBJECTID": 123, "FISCAL_YEAR_COMPLETE": 2009, "PROJECT_NAME": "Lehigh Mixed Use", "DEVELOPER_NAME": "Allegheny West Foundation", "ADDRESS": "1927 W LEHIGH AVE", "PROJECT_TYPE": "Rental", "TOTAL_UNITS": 5, "ACCESSIBLE_UNITS": null, "SENSORY_UNITS": null, "VISITABLE_UNITS": null }, "geometry": { "type": "Point", "coordinates": [ -75.163672526825422, 39.995372617441717 ] } },
{ "type": "Feature", "properties": { "OBJECTID": 124, "FISCAL_YEAR_COMPLETE": 2009, "PROJECT_NAME": "Ludlow Village V\/Pradera III", "DEVELOPER_NAME": "APM", "ADDRESS": "1500 N FRANKLIN ST", "PROJECT_TYPE": "Homeownership", "TOTAL_UNITS": 25, "ACCESSIBLE_UNITS": null, "SENSORY_UNITS": null, "VISITABLE_UNITS": null }, "geometry": { "type": "Point", "coordinates": [ -75.148317927732975, 39.974682058037381 ] } },
{ "type": "Feature", "properties": { "OBJECTID": 125, "FISCAL_YEAR_COMPLETE": 2009, "PROJECT_NAME": "Mt. Tabor Senior Cyber Village", "DEVELOPER_NAME": "Mt. Tabor CEED", "ADDRESS": "973 N 7TH ST", "PROJECT_TYPE": "Rental", "TOTAL_UNITS": 56, "ACCESSIBLE_UNITS": null, "SENSORY_UNITS": null, "VISITABLE_UNITS": null }, "geometry": { "type": "Point", "coordinates": [ -75.148045462439327, 39.969606193421946 ] } },
{ "type": "Feature", "properties": { "OBJECTID": 126, "FISCAL_YEAR_COMPLETE": 2009, "PROJECT_NAME": "Reba Brown Senior 202", "DEVELOPER_NAME": "Mt. Zion Dev Corp", "ADDRESS": "1450 S 50TH ST", "PROJECT_TYPE": "Rental", "TOTAL_UNITS": 75, "ACCESSIBLE_UNITS": null, "SENSORY_UNITS": null, "VISITABLE_UNITS": null }, "geometry": { "type": "Point", "coordinates": [ -75.213621441694357, 39.938867030769842 ] } },
{ "type": "Feature", "properties": { "OBJECTID": 127, "FISCAL_YEAR_COMPLETE": 2009, "PROJECT_NAME": "Evelyn Saunders Townhouses", "DEVELOPER_NAME": "WCRP", "ADDRESS": "3009 N PERCY ST", "PROJECT_TYPE": "Special Needs", "TOTAL_UNITS": 49, "ACCESSIBLE_UNITS": null, "SENSORY_UNITS": null, "VISITABLE_UNITS": null }, "geometry": { "type": "Point", "coordinates": [ -75.145425782938105, 39.997941869167995 ] } },
{ "type": "Feature", "properties": { "OBJECTID": 128, "FISCAL_YEAR_COMPLETE": 2009, "PROJECT_NAME": "Hunter School", "DEVELOPER_NAME": "Norris Square, OKKS", "ADDRESS": "2315 N HOWARD ST", "PROJECT_TYPE": "Homeownership", "TOTAL_UNITS": 50, "ACCESSIBLE_UNITS": null, "SENSORY_UNITS": null, "VISITABLE_UNITS": null }, "geometry": { "type": "Point", "coordinates": [ -75.132881111429697, 39.985316268606773 ] } },
{ "type": "Feature", "properties": { "OBJECTID": 129, "FISCAL_YEAR_COMPLETE": 2009, "PROJECT_NAME": "Northern Home for Children", "DEVELOPER_NAME": "Generations", "ADDRESS": "5301 RIDGE AVE", "PROJECT_TYPE": "Special Needs", "TOTAL_UNITS": 8, "ACCESSIBLE_UNITS": null, "SENSORY_UNITS": null, "VISITABLE_UNITS": null }, "geometry": { "type": "Point", "coordinates": [ -75.208580056340324, 40.021052393097904 ] } },
{ "type": "Feature", "properties": { "OBJECTID": 130, "FISCAL_YEAR_COMPLETE": 2009, "PROJECT_NAME": "Twin Homes at Frankford Creek", "DEVELOPER_NAME": "Impact Services Corp", "ADDRESS": "1501 E CAYUGA ST", "PROJECT_TYPE": "Homeownership", "TOTAL_UNITS": 50, "ACCESSIBLE_UNITS": null, "SENSORY_UNITS": null, "VISITABLE_UNITS": null }, "geometry": { "type": "Point", "coordinates": [ -75.09717403660089, 40.013514464009532 ] } },
{ "type": "Feature", "properties": { "OBJECTID": 131, "FISCAL_YEAR_COMPLETE": 2009, "PROJECT_NAME": "Mantua Presbyterian 202", "DEVELOPER_NAME": "Presbyterian", "ADDRESS": "600-18 N 34TH ST", "PROJECT_TYPE": "Rental", "TOTAL_UNITS": 65, "ACCESSIBLE_UNITS": null, "SENSORY_UNITS": null, "VISITABLE_UNITS": null }, "geometry": { "type": "Point", "coordinates": [ -75.192209957786091, 39.964314717470124 ] } },
{ "type": "Feature", "properties": { "OBJECTID": 132, "FISCAL_YEAR_COMPLETE": 2009, "PROJECT_NAME": "Liberty Community Integration Program", "DEVELOPER_NAME": "Liberty Resources", "ADDRESS": "7600 E ROOSEVELT BLVD", "PROJECT_TYPE": "Rental", "TOTAL_UNITS": 5, "ACCESSIBLE_UNITS": null, "SENSORY_UNITS": null, "VISITABLE_UNITS": null }, "geometry": { "type": "Point", "coordinates": [ -75.052421034819815, 40.050808819759951 ] } },
{ "type": "Feature", "properties": { "OBJECTID": 133, "FISCAL_YEAR_COMPLETE": 2009, "PROJECT_NAME": "Paschall Senior 202", "DEVELOPER_NAME": "Food for Life", "ADDRESS": "6901 WOODLAND AVE", "PROJECT_TYPE": "Rental", "TOTAL_UNITS": 63, "ACCESSIBLE_UNITS": null, "SENSORY_UNITS": null, "VISITABLE_UNITS": null }, "geometry": { "type": "Point", "coordinates": [ -75.240795434068588, 39.92180728601911 ] } },
{ "type": "Feature", "properties": { "OBJECTID": 134, "FISCAL_YEAR_COMPLETE": 2009, "PROJECT_NAME": "St. Elizabeth Recovery Residence", "DEVELOPER_NAME": "Project HOME", "ADDRESS": "1850 N CROSKEY ST", "PROJECT_TYPE": "Special Needs", "TOTAL_UNITS": 24, "ACCESSIBLE_UNITS": null, "SENSORY_UNITS": null, "VISITABLE_UNITS": null }, "geometry": { "type": "Point", "coordinates": [ -75.171363544774749, 39.98310450363121 ] } },
{ "type": "Feature", "properties": { "OBJECTID": 135, "FISCAL_YEAR_COMPLETE": 2009, "PROJECT_NAME": "Homeownership Rehabilitation Program", "DEVELOPER_NAME": "Various", "ADDRESS": "Scattered", "PROJECT_TYPE": "Homeownership", "TOTAL_UNITS": 30, "ACCESSIBLE_UNITS": null, "SENSORY_UNITS": null, "VISITABLE_UNITS": null }, "geometry": null },
{ "type": "Feature", "properties": { "OBJECTID": 136, "FISCAL_YEAR_COMPLETE": 2008, "PROJECT_NAME": "Melon SIL 811", "DEVELOPER_NAME": "Columbus Property Mgmt", "ADDRESS": "3616-28 MELON ST", "PROJECT_TYPE": "Rental", "TOTAL_UNITS": 10, "ACCESSIBLE_UNITS": null, "SENSORY_UNITS": null, "VISITABLE_UNITS": null }, "geometry": { "type": "Point", "coordinates": [ -75.195702782397106, 39.965220581592014 ] } },
{ "type": "Feature", "properties": { "OBJECTID": 137, "FISCAL_YEAR_COMPLETE": 2008, "PROJECT_NAME": "Cross\/Greenwich - UCH", "DEVELOPER_NAME": "Universal Community Homes", "ADDRESS": "2300 CROSS ST", "PROJECT_TYPE": "Homeownership", "TOTAL_UNITS": 9, "ACCESSIBLE_UNITS": null, "SENSORY_UNITS": null, "VISITABLE_UNITS": null }, "geometry": { "type": "Point", "coordinates": [ -75.183131704174471, 39.93271622872291 ] } },
{ "type": "Feature", "properties": { "OBJECTID": 138, "FISCAL_YEAR_COMPLETE": 2008, "PROJECT_NAME": "Project Restoration", "DEVELOPER_NAME": "Women of Excellence", "ADDRESS": "2850 N 9TH ST", "PROJECT_TYPE": "Special Needs", "TOTAL_UNITS": 14, "ACCESSIBLE_UNITS": null, "SENSORY_UNITS": null, "VISITABLE_UNITS": null }, "geometry": { "type": "Point", "coordinates": [ -75.145885496315685, 39.995695327769589 ] } },
{ "type": "Feature", "properties": { "OBJECTID": 139, "FISCAL_YEAR_COMPLETE": 2008, "PROJECT_NAME": "St. Elizabeth V", "DEVELOPER_NAME": "Project HOME", "ADDRESS": "1852 N 23RD ST", "PROJECT_TYPE": "Homeownership", "TOTAL_UNITS": 15, "ACCESSIBLE_UNITS": null, "SENSORY_UNITS": null, "VISITABLE_UNITS": null }, "geometry": { "type": "Point", "coordinates": [ -75.172115134445761, 39.983347071319166 ] } },
{ "type": "Feature", "properties": { "OBJECTID": 140, "FISCAL_YEAR_COMPLETE": 2008, "PROJECT_NAME": "Fresh Start", "DEVELOPER_NAME": "Methodist Services", "ADDRESS": "4300 MONUMENT RD", "PROJECT_TYPE": "Special Needs", "TOTAL_UNITS": 11, "ACCESSIBLE_UNITS": null, "SENSORY_UNITS": null, "VISITABLE_UNITS": null }, "geometry": { "type": "Point", "coordinates": [ -75.214906298870531, 39.99803786949883 ] } },
{ "type": "Feature", "properties": { "OBJECTID": 141, "FISCAL_YEAR_COMPLETE": 2008, "PROJECT_NAME": "Inglis Housing\/Elmwood", "DEVELOPER_NAME": "Inglis House Corp", "ADDRESS": "6200 EASTWICK AVE", "PROJECT_TYPE": "Special Needs", "TOTAL_UNITS": 40, "ACCESSIBLE_UNITS": null, "SENSORY_UNITS": null, "VISITABLE_UNITS": null }, "geometry": { "type": "Point", "coordinates": [ -75.221428792890634, 39.921065679220881 ] } },
{ "type": "Feature", "properties": { "OBJECTID": 142, "FISCAL_YEAR_COMPLETE": 2008, "PROJECT_NAME": "Reunification House", "DEVELOPER_NAME": "Impact Services Corp", "ADDRESS": "190 W ALLEGHENY AVE", "PROJECT_TYPE": "Special Needs", "TOTAL_UNITS": 2, "ACCESSIBLE_UNITS": null, "SENSORY_UNITS": null, "VISITABLE_UNITS": null }, "geometry": { "type": "Point", "coordinates": [ -75.133106796519613, 39.998801517039219 ] } },
{ "type": "Feature", "properties": { "OBJECTID": 143, "FISCAL_YEAR_COMPLETE": 2008, "PROJECT_NAME": "Angela Court II", "DEVELOPER_NAME": "St. Ignatius Nursing Home", "ADDRESS": "4400-58 FAIRMOUNT AVE", "PROJECT_TYPE": "Rental", "TOTAL_UNITS": 54, "ACCESSIBLE_UNITS": null, "SENSORY_UNITS": null, "VISITABLE_UNITS": null }, "geometry": { "type": "Point", "coordinates": [ -75.211475111691769, 39.963893581123827 ] } },
{ "type": "Feature", "properties": { "OBJECTID": 144, "FISCAL_YEAR_COMPLETE": 2008, "PROJECT_NAME": "Dewey Street", "DEVELOPER_NAME": "PCAH, ACHIEVEablity", "ADDRESS": "132 N 61ST ST", "PROJECT_TYPE": "Homeownership", "TOTAL_UNITS": 10, "ACCESSIBLE_UNITS": null, "SENSORY_UNITS": null, "VISITABLE_UNITS": null }, "geometry": { "type": "Point", "coordinates": [ -75.242488324255291, 39.964574347415862 ] } },
{ "type": "Feature", "properties": { "OBJECTID": 145, "FISCAL_YEAR_COMPLETE": 2008, "PROJECT_NAME": "Inglis Gardens Germantown 811", "DEVELOPER_NAME": "Inglis House Corp", "ADDRESS": "332-34 E WALNUT LN", "PROJECT_TYPE": "Rental", "TOTAL_UNITS": 15, "ACCESSIBLE_UNITS": null, "SENSORY_UNITS": null, "VISITABLE_UNITS": null }, "geometry": { "type": "Point", "coordinates": [ -75.173695985060789, 40.044960865612673 ] } },
{ "type": "Feature", "properties": { "OBJECTID": 146, "FISCAL_YEAR_COMPLETE": 2008, "PROJECT_NAME": "Ludlow Village VI", "DEVELOPER_NAME": "Phila Housing Authority", "ADDRESS": "1504 N 8TH ST", "PROJECT_TYPE": "Homeownership", "TOTAL_UNITS": 54, "ACCESSIBLE_UNITS": null, "SENSORY_UNITS": null, "VISITABLE_UNITS": null }, "geometry": { "type": "Point", "coordinates": [ -75.149290898790696, 39.974863363225161 ] } },
{ "type": "Feature", "properties": { "OBJECTID": 147, "FISCAL_YEAR_COMPLETE": 2008, "PROJECT_NAME": "St. John Neumann's Place", "DEVELOPER_NAME": "Catholic Social Services", "ADDRESS": "2600 MOORE ST", "PROJECT_TYPE": "Rental", "TOTAL_UNITS": 75, "ACCESSIBLE_UNITS": null, "SENSORY_UNITS": null, "VISITABLE_UNITS": null }, "geometry": { "type": "Point", "coordinates": [ -75.189468103072613, 39.930312300583452 ] } },
{ "type": "Feature", "properties": { "OBJECTID": 148, "FISCAL_YEAR_COMPLETE": 2008, "PROJECT_NAME": "Casa Farnese 202", "DEVELOPER_NAME": "Casa Farnese", "ADDRESS": "1300-28 LOMBARD ST", "PROJECT_TYPE": "Rental", "TOTAL_UNITS": 288, "ACCESSIBLE_UNITS": null, "SENSORY_UNITS": null, "VISITABLE_UNITS": null }, "geometry": { "type": "Point", "coordinates": [ -75.163701315688243, 39.944222364434609 ] } },
{ "type": "Feature", "properties": { "OBJECTID": 149, "FISCAL_YEAR_COMPLETE": 2008, "PROJECT_NAME": "Brewerytown Homestart", "DEVELOPER_NAME": "PHDC", "ADDRESS": "1423 N 30TH ST", "PROJECT_TYPE": "Homeownership", "TOTAL_UNITS": 5, "ACCESSIBLE_UNITS": null, "SENSORY_UNITS": null, "VISITABLE_UNITS": null }, "geometry": { "type": "Point", "coordinates": [ -75.184124422987338, 39.978301187573813 ] } },
{ "type": "Feature", "properties": { "OBJECTID": 150, "FISCAL_YEAR_COMPLETE": 2008, "PROJECT_NAME": "Homeownership Rehabilitation Program", "DEVELOPER_NAME": "Various", "ADDRESS": "Scattered", "PROJECT_TYPE": "Homeownership", "TOTAL_UNITS": 14, "ACCESSIBLE_UNITS": null, "SENSORY_UNITS": null, "VISITABLE_UNITS": null }, "geometry": null },
{ "type": "Feature", "properties": { "OBJECTID": 151, "FISCAL_YEAR_COMPLETE": 2007, "PROJECT_NAME": "Montana Street", "DEVELOPER_NAME": "Mt. Airy CDC", "ADDRESS": "251 MONTANA ST", "PROJECT_TYPE": "Homeownership", "TOTAL_UNITS": 11, "ACCESSIBLE_UNITS": null, "SENSORY_UNITS": null, "VISITABLE_UNITS": null }, "geometry": { "type": "Point", "coordinates": [ -75.180496400132839, 40.053919294352738 ] } },
{ "type": "Feature", "properties": { "OBJECTID": 152, "FISCAL_YEAR_COMPLETE": 2007, "PROJECT_NAME": "Phillip Murray House II 202", "DEVELOPER_NAME": "Phillip Murray II Inc.", "ADDRESS": "6300 OLD YORK RD", "PROJECT_TYPE": "Rental", "TOTAL_UNITS": 70, "ACCESSIBLE_UNITS": null, "SENSORY_UNITS": null, "VISITABLE_UNITS": null }, "geometry": { "type": "Point", "coordinates": [ -75.145367415311611, 40.049681955584987 ] } },
{ "type": "Feature", "properties": { "OBJECTID": 153, "FISCAL_YEAR_COMPLETE": 2007, "PROJECT_NAME": "Reinhard Street", "DEVELOPER_NAME": "Resources for Human Development", "ADDRESS": "4700 REINHARD ST", "PROJECT_TYPE": "Homeownership", "TOTAL_UNITS": 15, "ACCESSIBLE_UNITS": null, "SENSORY_UNITS": null, "VISITABLE_UNITS": null }, "geometry": { "type": "Point", "coordinates": [ -75.212120785621437, 39.944173965842026 ] } },
{ "type": "Feature", "properties": { "OBJECTID": 154, "FISCAL_YEAR_COMPLETE": 2007, "PROJECT_NAME": "FOP Senior Citizens", "DEVELOPER_NAME": "FOP Senior Citizens", "ADDRESS": "730 BYBERRY RD", "PROJECT_TYPE": "Rental", "TOTAL_UNITS": null, "ACCESSIBLE_UNITS": null, "SENSORY_UNITS": null, "VISITABLE_UNITS": null }, "geometry": { "type": "Point", "coordinates": [ -75.013546713024098, 40.121705124496067 ] } },
{ "type": "Feature", "properties": { "OBJECTID": 155, "FISCAL_YEAR_COMPLETE": 2007, "PROJECT_NAME": "111 W Erie", "DEVELOPER_NAME": "Impact Services Corp", "ADDRESS": "111 W ERIE AVE", "PROJECT_TYPE": "Special Needs", "TOTAL_UNITS": 0, "ACCESSIBLE_UNITS": null, "SENSORY_UNITS": null, "VISITABLE_UNITS": null }, "geometry": { "type": "Point", "coordinates": [ -75.12829253344421, 40.007898593907782 ] } },
{ "type": "Feature", "properties": { "OBJECTID": 156, "FISCAL_YEAR_COMPLETE": 2007, "PROJECT_NAME": "Cottage\/New Courtland 811", "DEVELOPER_NAME": "Germantown Homes Corp", "ADDRESS": "6950 GERMANTOWN AVE", "PROJECT_TYPE": "Rental", "TOTAL_UNITS": 18, "ACCESSIBLE_UNITS": null, "SENSORY_UNITS": null, "VISITABLE_UNITS": null }, "geometry": { "type": "Point", "coordinates": [ -75.188715708473083, 40.055341703728395 ] } },
{ "type": "Feature", "properties": { "OBJECTID": 157, "FISCAL_YEAR_COMPLETE": 2007, "PROJECT_NAME": "Imani Homes V", "DEVELOPER_NAME": "PEC", "ADDRESS": "3844 HAVERFORD AVE", "PROJECT_TYPE": "Special Needs", "TOTAL_UNITS": 11, "ACCESSIBLE_UNITS": null, "SENSORY_UNITS": null, "VISITABLE_UNITS": null }, "geometry": { "type": "Point", "coordinates": [ -75.198899301530645, 39.963035052738576 ] } },
{ "type": "Feature", "properties": { "OBJECTID": 158, "FISCAL_YEAR_COMPLETE": 2007, "PROJECT_NAME": "Inglis Gardens Washington 811", "DEVELOPER_NAME": "Inglis House Corp", "ADDRESS": "1200-06 E WASHINGTON LN", "PROJECT_TYPE": "Rental", "TOTAL_UNITS": 15, "ACCESSIBLE_UNITS": null, "SENSORY_UNITS": null, "VISITABLE_UNITS": null }, "geometry": { "type": "Point", "coordinates": [ -75.166845246229073, 40.056358681737706 ] } },
{ "type": "Feature", "properties": { "OBJECTID": 159, "FISCAL_YEAR_COMPLETE": 2007, "PROJECT_NAME": "Powelton Heights", "DEVELOPER_NAME": "11260 Housing Development Corporation", "ADDRESS": "4113-43 WARREN ST", "PROJECT_TYPE": "Special Needs", "TOTAL_UNITS": 48, "ACCESSIBLE_UNITS": null, "SENSORY_UNITS": null, "VISITABLE_UNITS": null }, "geometry": { "type": "Point", "coordinates": [ -75.206439452548352, 39.965088331355538 ] } },
{ "type": "Feature", "properties": { "OBJECTID": 160, "FISCAL_YEAR_COMPLETE": 2007, "PROJECT_NAME": "Sharswood II", "DEVELOPER_NAME": "Michaels Development", "ADDRESS": "vic. Nassau, 21st, Harlan, 22nd", "PROJECT_TYPE": "Rental", "TOTAL_UNITS": 60, "ACCESSIBLE_UNITS": null, "SENSORY_UNITS": null, "VISITABLE_UNITS": null }, "geometry": { "type": "Point", "coordinates": [ -75.170354836580799, 39.976334359421486 ] } },
{ "type": "Feature", "properties": { "OBJECTID": 161, "FISCAL_YEAR_COMPLETE": 2007, "PROJECT_NAME": "Cloisters III", "DEVELOPER_NAME": "PEC", "ADDRESS": "3812-14 HAVERFORD AVE", "PROJECT_TYPE": "Special Needs", "TOTAL_UNITS": 50, "ACCESSIBLE_UNITS": null, "SENSORY_UNITS": null, "VISITABLE_UNITS": null }, "geometry": { "type": "Point", "coordinates": [ -75.197900865676033, 39.96314658813435 ] } },
{ "type": "Feature", "properties": { "OBJECTID": 162, "FISCAL_YEAR_COMPLETE": 2007, "PROJECT_NAME": "Susquehanna Village", "DEVELOPER_NAME": "Community Ventures", "ADDRESS": "1421 W SUSQUEHANNA AVE", "PROJECT_TYPE": "Rental", "TOTAL_UNITS": 50, "ACCESSIBLE_UNITS": null, "SENSORY_UNITS": null, "VISITABLE_UNITS": null }, "geometry": { "type": "Point", "coordinates": [ -75.157461928727244, 39.9866835463488 ] } },
{ "type": "Feature", "properties": { "OBJECTID": 163, "FISCAL_YEAR_COMPLETE": 2007, "PROJECT_NAME": "Yorktown Arms II ", "DEVELOPER_NAME": "Yorktown CDC", "ADDRESS": "1400 N 13TH ST", "PROJECT_TYPE": "Rental", "TOTAL_UNITS": 37, "ACCESSIBLE_UNITS": null, "SENSORY_UNITS": null, "VISITABLE_UNITS": null }, "geometry": { "type": "Point", "coordinates": [ -75.156790343794682, 39.97493342729782 ] } },
{ "type": "Feature", "properties": { "OBJECTID": 164, "FISCAL_YEAR_COMPLETE": 2007, "PROJECT_NAME": "Cecil B. Moore III-1", "DEVELOPER_NAME": "HERB CDC", "ADDRESS": "1501 N UBER ST", "PROJECT_TYPE": "Homeownership", "TOTAL_UNITS": 64, "ACCESSIBLE_UNITS": null, "SENSORY_UNITS": null, "VISITABLE_UNITS": null }, "geometry": { "type": "Point", "coordinates": [ -75.166974049735771, 39.977086673679629 ] } },
{ "type": "Feature", "properties": { "OBJECTID": 165, "FISCAL_YEAR_COMPLETE": 2007, "PROJECT_NAME": "Cecil Housing", "DEVELOPER_NAME": "ACHIEVEability", "ADDRESS": "106 N DEWEY ST", "PROJECT_TYPE": "Special Needs", "TOTAL_UNITS": 11, "ACCESSIBLE_UNITS": null, "SENSORY_UNITS": null, "VISITABLE_UNITS": null }, "geometry": { "type": "Point", "coordinates": [ -75.243235000558812, 39.964118288789045 ] } },
{ "type": "Feature", "properties": { "OBJECTID": 166, "FISCAL_YEAR_COMPLETE": 2007, "PROJECT_NAME": "Keystone Housing", "DEVELOPER_NAME": "Keystone Hospice", "ADDRESS": "8765 Stenton Avenue, Glenside, PA", "PROJECT_TYPE": "Special Needs", "TOTAL_UNITS": 19, "ACCESSIBLE_UNITS": null, "SENSORY_UNITS": null, "VISITABLE_UNITS": null }, "geometry": null },
{ "type": "Feature", "properties": { "OBJECTID": 167, "FISCAL_YEAR_COMPLETE": 2007, "PROJECT_NAME": "Mantua 811", "DEVELOPER_NAME": "11260 Housing Development Corporation", "ADDRESS": "3613-19 FAIRMOUNT AVE", "PROJECT_TYPE": "Rental", "TOTAL_UNITS": 10, "ACCESSIBLE_UNITS": null, "SENSORY_UNITS": null, "VISITABLE_UNITS": null }, "geometry": { "type": "Point", "coordinates": [ -75.195867132080338, 39.96613136023214 ] } },
{ "type": "Feature", "properties": { "OBJECTID": 168, "FISCAL_YEAR_COMPLETE": 2007, "PROJECT_NAME": "Pradera II", "DEVELOPER_NAME": "APM", "ADDRESS": "1800 N 7TH ST", "PROJECT_TYPE": "Homeownership", "TOTAL_UNITS": 53, "ACCESSIBLE_UNITS": null, "SENSORY_UNITS": null, "VISITABLE_UNITS": null }, "geometry": { "type": "Point", "coordinates": [ -75.14679189794802, 39.978969526415639 ] } },
{ "type": "Feature", "properties": { "OBJECTID": 169, "FISCAL_YEAR_COMPLETE": 2007, "PROJECT_NAME": "The Commons at Point Breeze", "DEVELOPER_NAME": "Universal Community Homes", "ADDRESS": "1134 S 15TH ST", "PROJECT_TYPE": "Rental", "TOTAL_UNITS": 55, "ACCESSIBLE_UNITS": null, "SENSORY_UNITS": null, "VISITABLE_UNITS": null }, "geometry": { "type": "Point", "coordinates": [ -75.16891644621758, 39.936966023940897 ] } },
{ "type": "Feature", "properties": { "OBJECTID": 170, "FISCAL_YEAR_COMPLETE": 2007, "PROJECT_NAME": "New Kensington", "DEVELOPER_NAME": "New Kensington CDC", "ADDRESS": "2045 E DAUPHIN ST", "PROJECT_TYPE": "Homeownership", "TOTAL_UNITS": 8, "ACCESSIBLE_UNITS": null, "SENSORY_UNITS": null, "VISITABLE_UNITS": null }, "geometry": { "type": "Point", "coordinates": [ -75.13036956005844, 39.982610576526234 ] } },
{ "type": "Feature", "properties": { "OBJECTID": 171, "FISCAL_YEAR_COMPLETE": 2007, "PROJECT_NAME": "Homeownership Rehabilitation Program", "DEVELOPER_NAME": "Various", "ADDRESS": "Scattered", "PROJECT_TYPE": "Homeownership", "TOTAL_UNITS": 53, "ACCESSIBLE_UNITS": null, "SENSORY_UNITS": null, "VISITABLE_UNITS": null }, "geometry": null },
{ "type": "Feature", "properties": { "OBJECTID": 172, "FISCAL_YEAR_COMPLETE": 2006, "PROJECT_NAME": "Imani Homes IV", "DEVELOPER_NAME": "PEC", "ADDRESS": "4042 GREEN ST", "PROJECT_TYPE": "Special Needs", "TOTAL_UNITS": 8, "ACCESSIBLE_UNITS": null, "SENSORY_UNITS": null, "VISITABLE_UNITS": null }, "geometry": { "type": "Point", "coordinates": [ -75.203605910543232, 39.961988396719882 ] } },
{ "type": "Feature", "properties": { "OBJECTID": 173, "FISCAL_YEAR_COMPLETE": 2006, "PROJECT_NAME": "Center Park III Elderly", "DEVELOPER_NAME": "Jewish Federation", "ADDRESS": "10102 JAMISON AVE", "PROJECT_TYPE": "Rental", "TOTAL_UNITS": 39, "ACCESSIBLE_UNITS": null, "SENSORY_UNITS": null, "VISITABLE_UNITS": null }, "geometry": { "type": "Point", "coordinates": [ -75.022368592172427, 40.100946176861385 ] } },
{ "type": "Feature", "properties": { "OBJECTID": 174, "FISCAL_YEAR_COMPLETE": 2006, "PROJECT_NAME": "Coral Street Apts", "DEVELOPER_NAME": "New Kensington CDC", "ADDRESS": "2446-68 CORAL ST", "PROJECT_TYPE": "Rental", "TOTAL_UNITS": 27, "ACCESSIBLE_UNITS": null, "SENSORY_UNITS": null, "VISITABLE_UNITS": null }, "geometry": { "type": "Point", "coordinates": [ -75.128130640325551, 39.984337783290641 ] } },
{ "type": "Feature", "properties": { "OBJECTID": 175, "FISCAL_YEAR_COMPLETE": 2006, "PROJECT_NAME": "Vernon House", "DEVELOPER_NAME": "Pennrose", "ADDRESS": "3226 CLIFFORD ST", "PROJECT_TYPE": "Rental", "TOTAL_UNITS": 68, "ACCESSIBLE_UNITS": null, "SENSORY_UNITS": null, "VISITABLE_UNITS": null }, "geometry": { "type": "Point", "coordinates": [ -75.187789673636388, 39.983097455023341 ] } },
{ "type": "Feature", "properties": { "OBJECTID": 176, "FISCAL_YEAR_COMPLETE": 2006, "PROJECT_NAME": "Carroll Park", "DEVELOPER_NAME": "Phila NHS", "ADDRESS": "1313 N 59TH ST", "PROJECT_TYPE": "Homeownership", "TOTAL_UNITS": 7, "ACCESSIBLE_UNITS": null, "SENSORY_UNITS": null, "VISITABLE_UNITS": null }, "geometry": { "type": "Point", "coordinates": [ -75.237602886778632, 39.972162762677108 ] } },
{ "type": "Feature", "properties": { "OBJECTID": 177, "FISCAL_YEAR_COMPLETE": 2006, "PROJECT_NAME": "Mascher Street Townhouses", "DEVELOPER_NAME": "WCRP", "ADDRESS": "2742-70 MASCHER ST", "PROJECT_TYPE": "Special Needs", "TOTAL_UNITS": 12, "ACCESSIBLE_UNITS": null, "SENSORY_UNITS": null, "VISITABLE_UNITS": null }, "geometry": { "type": "Point", "coordinates": [ -75.1328764718359, 39.992443531566394 ] } },
{ "type": "Feature", "properties": { "OBJECTID": 178, "FISCAL_YEAR_COMPLETE": 2006, "PROJECT_NAME": "Neuman North Senior", "DEVELOPER_NAME": "Dale Corporation", "ADDRESS": "1601 E PALMER ST", "PROJECT_TYPE": "Rental", "TOTAL_UNITS": 67, "ACCESSIBLE_UNITS": null, "SENSORY_UNITS": null, "VISITABLE_UNITS": null }, "geometry": { "type": "Point", "coordinates": [ -75.132143197356726, 39.975420949235925 ] } },
{ "type": "Feature", "properties": { "OBJECTID": 179, "FISCAL_YEAR_COMPLETE": 2006, "PROJECT_NAME": "Respite II", "DEVELOPER_NAME": "Catch", "ADDRESS": "1208-12 S 15TH ST", "PROJECT_TYPE": "Special Needs", "TOTAL_UNITS": 16, "ACCESSIBLE_UNITS": null, "SENSORY_UNITS": null, "VISITABLE_UNITS": null }, "geometry": { "type": "Point", "coordinates": [ -75.169183236837029, 39.935686378267512 ] } },
{ "type": "Feature", "properties": { "OBJECTID": 180, "FISCAL_YEAR_COMPLETE": 2006, "PROJECT_NAME": "Simpson Senior Services", "DEVELOPER_NAME": "Simpson Senior Services, Inc.", "ADDRESS": "1001-11 GREEN ST", "PROJECT_TYPE": "Rental", "TOTAL_UNITS": 40, "ACCESSIBLE_UNITS": null, "SENSORY_UNITS": null, "VISITABLE_UNITS": null }, "geometry": { "type": "Point", "coordinates": [ -75.154717646343897, 39.962891241758278 ] } },
{ "type": "Feature", "properties": { "OBJECTID": 181, "FISCAL_YEAR_COMPLETE": 2006, "PROJECT_NAME": "Gaudenzia - Tioga Arms", "DEVELOPER_NAME": "Gaudenzia Foundation", "ADDRESS": "1828-30 W TIOGA ST", "PROJECT_TYPE": "Special Needs", "TOTAL_UNITS": 30, "ACCESSIBLE_UNITS": null, "SENSORY_UNITS": null, "VISITABLE_UNITS": null }, "geometry": { "type": "Point", "coordinates": [ -75.15950138016558, 40.006898209230393 ] } },
{ "type": "Feature", "properties": { "OBJECTID": 182, "FISCAL_YEAR_COMPLETE": 2006, "PROJECT_NAME": "Neumann Senior Housing", "DEVELOPER_NAME": "NCC Neumann Senior Housing Corp", "ADDRESS": "1741 FRANKFORD AVE", "PROJECT_TYPE": "Rental", "TOTAL_UNITS": 70, "ACCESSIBLE_UNITS": null, "SENSORY_UNITS": null, "VISITABLE_UNITS": null }, "geometry": { "type": "Point", "coordinates": [ -75.131970577508241, 39.975766172930534 ] } },
{ "type": "Feature", "properties": { "OBJECTID": 183, "FISCAL_YEAR_COMPLETE": 2006, "PROJECT_NAME": "Parkside I", "DEVELOPER_NAME": "Community Ventures", "ADDRESS": "5152 PARKSIDE AVE", "PROJECT_TYPE": "Homeownership", "TOTAL_UNITS": 19, "ACCESSIBLE_UNITS": null, "SENSORY_UNITS": null, "VISITABLE_UNITS": null }, "geometry": { "type": "Point", "coordinates": [ -75.223123319343301, 39.981073043967456 ] } },
{ "type": "Feature", "properties": { "OBJECTID": 184, "FISCAL_YEAR_COMPLETE": 2006, "PROJECT_NAME": "Home in Belmont", "DEVELOPER_NAME": "Friends Rehabilitation Program", "ADDRESS": "4020 PARRISH ST", "PROJECT_TYPE": "Homeownership", "TOTAL_UNITS": 8, "ACCESSIBLE_UNITS": null, "SENSORY_UNITS": null, "VISITABLE_UNITS": null }, "geometry": { "type": "Point", "coordinates": [ -75.204817121851136, 39.968099795737558 ] } },
{ "type": "Feature", "properties": { "OBJECTID": 185, "FISCAL_YEAR_COMPLETE": 2006, "PROJECT_NAME": "New Courtland 202", "DEVELOPER_NAME": "Germantown Homes Corp", "ADDRESS": "6950 GERMANTOWN AVE", "PROJECT_TYPE": "Rental", "TOTAL_UNITS": 60, "ACCESSIBLE_UNITS": null, "SENSORY_UNITS": null, "VISITABLE_UNITS": null }, "geometry": { "type": "Point", "coordinates": [ -75.188715708473083, 40.055341703728395 ] } },
{ "type": "Feature", "properties": { "OBJECTID": 186, "FISCAL_YEAR_COMPLETE": 2006, "PROJECT_NAME": "Parkside II", "DEVELOPER_NAME": "Community Ventures", "ADDRESS": "5130 VIOLA ST", "PROJECT_TYPE": "Homeownership", "TOTAL_UNITS": 7, "ACCESSIBLE_UNITS": null, "SENSORY_UNITS": null, "VISITABLE_UNITS": null }, "geometry": { "type": "Point", "coordinates": [ -75.222798779555745, 39.980250445664659 ] } },
{ "type": "Feature", "properties": { "OBJECTID": 187, "FISCAL_YEAR_COMPLETE": 2006, "PROJECT_NAME": "Brewerytown Homestart", "DEVELOPER_NAME": "PHDC", "ADDRESS": "1728 N 28TH ST", "PROJECT_TYPE": "Homeownership", "TOTAL_UNITS": 11, "ACCESSIBLE_UNITS": null, "SENSORY_UNITS": null, "VISITABLE_UNITS": null }, "geometry": { "type": "Point", "coordinates": [ -75.180343201215848, 39.982276110472924 ] } },
{ "type": "Feature", "properties": { "OBJECTID": 188, "FISCAL_YEAR_COMPLETE": 2006, "PROJECT_NAME": "Brewerytown Homestart", "DEVELOPER_NAME": "PHDC", "ADDRESS": "1343 N 28TH ST", "PROJECT_TYPE": "Homeownership", "TOTAL_UNITS": 4, "ACCESSIBLE_UNITS": null, "SENSORY_UNITS": null, "VISITABLE_UNITS": null }, "geometry": { "type": "Point", "coordinates": [ -75.181071641497411, 39.977085586603572 ] } },
{ "type": "Feature", "properties": { "OBJECTID": 189, "FISCAL_YEAR_COMPLETE": 2006, "PROJECT_NAME": "Homeownership Rehabilitation Program", "DEVELOPER_NAME": "Various", "ADDRESS": "Scattered", "PROJECT_TYPE": "Homeownership", "TOTAL_UNITS": 29, "ACCESSIBLE_UNITS": null, "SENSORY_UNITS": null, "VISITABLE_UNITS": null }, "geometry": null },
{ "type": "Feature", "properties": { "OBJECTID": 190, "FISCAL_YEAR_COMPLETE": 2006, "PROJECT_NAME": "Homeownership Rehabilitation Program - Mole Street", "DEVELOPER_NAME": "Universal Community Homes, YouthBuild", "ADDRESS": "1141 S MOLE ST", "PROJECT_TYPE": "Homeownership", "TOTAL_UNITS": 4, "ACCESSIBLE_UNITS": null, "SENSORY_UNITS": null, "VISITABLE_UNITS": null }, "geometry": { "type": "Point", "coordinates": [ -75.169882182872968, 39.936936964549517 ] } },
{ "type": "Feature", "properties": { "OBJECTID": 191, "FISCAL_YEAR_COMPLETE": 2006, "PROJECT_NAME": "Homeownership Rehabilitation Project - Southwest Renewal", "DEVELOPER_NAME": "PHDC", "ADDRESS": "2043 S CECIL ST", "PROJECT_TYPE": "Homeownership", "TOTAL_UNITS": 9, "ACCESSIBLE_UNITS": null, "SENSORY_UNITS": null, "VISITABLE_UNITS": null }, "geometry": { "type": "Point", "coordinates": [ -75.225766526046272, 39.934358585038233 ] } },
{ "type": "Feature", "properties": { "OBJECTID": 192, "FISCAL_YEAR_COMPLETE": 2006, "PROJECT_NAME": "South Lehigh Homestart", "DEVELOPER_NAME": "PHDC", "ADDRESS": "2302 W CUMBERLAND ST", "PROJECT_TYPE": "Homeownership", "TOTAL_UNITS": 10, "ACCESSIBLE_UNITS": null, "SENSORY_UNITS": null, "VISITABLE_UNITS": null }, "geometry": { "type": "Point", "coordinates": [ -75.170075012632012, 39.992551546795482 ] } },
{ "type": "Feature", "properties": { "OBJECTID": 193, "FISCAL_YEAR_COMPLETE": 2005, "PROJECT_NAME": "16th & Federal\/Commons at Point Breeze II", "DEVELOPER_NAME": "Universal Community Homes", "ADDRESS": "1133 S 16TH ST", "PROJECT_TYPE": "Homeownership", "TOTAL_UNITS": 18, "ACCESSIBLE_UNITS": null, "SENSORY_UNITS": null, "VISITABLE_UNITS": null }, "geometry": { "type": "Point", "coordinates": [ -75.170100658168366, 39.937161118751291 ] } },
{ "type": "Feature", "properties": { "OBJECTID": 194, "FISCAL_YEAR_COMPLETE": 2005, "PROJECT_NAME": "Casa Nueva Vida", "DEVELOPER_NAME": "PCAH, ActionAIDS", "ADDRESS": "2629-41 N 6TH ST", "PROJECT_TYPE": "Special Needs", "TOTAL_UNITS": 12, "ACCESSIBLE_UNITS": null, "SENSORY_UNITS": null, "VISITABLE_UNITS": null }, "geometry": { "type": "Point", "coordinates": [ -75.142103078282119, 39.991637425247866 ] } },
{ "type": "Feature", "properties": { "OBJECTID": 195, "FISCAL_YEAR_COMPLETE": 2005, "PROJECT_NAME": "Monument Mews", "DEVELOPER_NAME": "11260 Housing Development Corporation", "ADDRESS": "4101L EDGLEY AVE", "PROJECT_TYPE": "Special Needs", "TOTAL_UNITS": 60, "ACCESSIBLE_UNITS": null, "SENSORY_UNITS": null, "VISITABLE_UNITS": null }, "geometry": { "type": "Point", "coordinates": [ -75.21796970073143, 39.994276377780473 ] } },
{ "type": "Feature", "properties": { "OBJECTID": 196, "FISCAL_YEAR_COMPLETE": 2005, "PROJECT_NAME": "Anthony Wayne Senior", "DEVELOPER_NAME": "Altman", "ADDRESS": "1701 S 28TH ST", "PROJECT_TYPE": "Rental", "TOTAL_UNITS": 39, "ACCESSIBLE_UNITS": null, "SENSORY_UNITS": null, "VISITABLE_UNITS": null }, "geometry": { "type": "Point", "coordinates": [ -75.190448574121703, 39.931651484986006 ] } },
{ "type": "Feature", "properties": { "OBJECTID": 197, "FISCAL_YEAR_COMPLETE": 2005, "PROJECT_NAME": "Jefferson Square", "DEVELOPER_NAME": "Jefferson Square CDC", "ADDRESS": "1208 S 5TH ST", "PROJECT_TYPE": "Homeownership", "TOTAL_UNITS": 24, "ACCESSIBLE_UNITS": null, "SENSORY_UNITS": null, "VISITABLE_UNITS": null }, "geometry": { "type": "Point", "coordinates": [ -75.152887249917569, 39.93322775232236 ] } },
{ "type": "Feature", "properties": { "OBJECTID": 198, "FISCAL_YEAR_COMPLETE": 2005, "PROJECT_NAME": "Kate's Place", "DEVELOPER_NAME": "Phila Housing Authority", "ADDRESS": "1929 SANSOM ST", "PROJECT_TYPE": "Rental", "TOTAL_UNITS": 144, "ACCESSIBLE_UNITS": null, "SENSORY_UNITS": null, "VISITABLE_UNITS": null }, "geometry": { "type": "Point", "coordinates": [ -75.173375347968076, 39.951428305810005 ] } },
{ "type": "Feature", "properties": { "OBJECTID": 199, "FISCAL_YEAR_COMPLETE": 2005, "PROJECT_NAME": "MLK Phase IV Demolition", "DEVELOPER_NAME": "Pennrose, Universal", "ADDRESS": "vic. Catherine, Webster, Montrose, Christian", "PROJECT_TYPE": "Rental", "TOTAL_UNITS": 42, "ACCESSIBLE_UNITS": null, "SENSORY_UNITS": null, "VISITABLE_UNITS": null }, "geometry": { "type": "Point", "coordinates": [ -75.168150761906602, 39.940565827691849 ] } },
{ "type": "Feature", "properties": { "OBJECTID": 200, "FISCAL_YEAR_COMPLETE": 2005, "PROJECT_NAME": "New Covenant Senior", "DEVELOPER_NAME": "New Covenant Church", "ADDRESS": "7406 GERMANTOWN AVE", "PROJECT_TYPE": "Rental", "TOTAL_UNITS": 56, "ACCESSIBLE_UNITS": null, "SENSORY_UNITS": null, "VISITABLE_UNITS": null }, "geometry": { "type": "Point", "coordinates": [ -75.196004637900131, 40.062825512714248 ] } },
{ "type": "Feature", "properties": { "OBJECTID": 201, "FISCAL_YEAR_COMPLETE": 2005, "PROJECT_NAME": "The Sheldrake\/4901 Spruce", "DEVELOPER_NAME": "Pennrose", "ADDRESS": "4901-09 SPRUCE ST", "PROJECT_TYPE": "Rental", "TOTAL_UNITS": 33, "ACCESSIBLE_UNITS": null, "SENSORY_UNITS": null, "VISITABLE_UNITS": null }, "geometry": { "type": "Point", "coordinates": [ -75.220264878547894, 39.954178368822063 ] } },
{ "type": "Feature", "properties": { "OBJECTID": 202, "FISCAL_YEAR_COMPLETE": 2005, "PROJECT_NAME": "Woodcrest", "DEVELOPER_NAME": "PCAH", "ADDRESS": "104 S CECIL ST", "PROJECT_TYPE": "Special Needs", "TOTAL_UNITS": 11, "ACCESSIBLE_UNITS": null, "SENSORY_UNITS": null, "VISITABLE_UNITS": null }, "geometry": { "type": "Point", "coordinates": [ -75.236698230459595, 39.95955001327772 ] } },
{ "type": "Feature", "properties": { "OBJECTID": 203, "FISCAL_YEAR_COMPLETE": 2005, "PROJECT_NAME": "Belmont Affordable V", "DEVELOPER_NAME": "TJ Properties", "ADDRESS": "871 N 42ND ST", "PROJECT_TYPE": "Rental", "TOTAL_UNITS": 24, "ACCESSIBLE_UNITS": null, "SENSORY_UNITS": null, "VISITABLE_UNITS": null }, "geometry": { "type": "Point", "coordinates": [ -75.207779306872965, 39.969291699598848 ] } },
{ "type": "Feature", "properties": { "OBJECTID": 204, "FISCAL_YEAR_COMPLETE": 2005, "PROJECT_NAME": "Caribe Towers 202", "DEVELOPER_NAME": "HACE", "ADDRESS": "3231-65 N 2ND ST", "PROJECT_TYPE": "Rental", "TOTAL_UNITS": 57, "ACCESSIBLE_UNITS": null, "SENSORY_UNITS": null, "VISITABLE_UNITS": null }, "geometry": { "type": "Point", "coordinates": [ -75.132710982276706, 40.000191368869558 ] } },
{ "type": "Feature", "properties": { "OBJECTID": 205, "FISCAL_YEAR_COMPLETE": 2005, "PROJECT_NAME": "Greenway Presbyterian 202", "DEVELOPER_NAME": "Presby's Inspired Life", "ADDRESS": "2050 S 58TH ST", "PROJECT_TYPE": "Rental", "TOTAL_UNITS": 68, "ACCESSIBLE_UNITS": null, "SENSORY_UNITS": null, "VISITABLE_UNITS": null }, "geometry": { "type": "Point", "coordinates": [ -75.226897394818209, 39.934007386004453 ] } },
{ "type": "Feature", "properties": { "OBJECTID": 206, "FISCAL_YEAR_COMPLETE": 2005, "PROJECT_NAME": "Karen Donnally", "DEVELOPER_NAME": "WCRP", "ADDRESS": "2028-40 N 4TH ST", "PROJECT_TYPE": "Special Needs", "TOTAL_UNITS": 32, "ACCESSIBLE_UNITS": null, "SENSORY_UNITS": null, "VISITABLE_UNITS": null }, "geometry": { "type": "Point", "coordinates": [ -75.140702011189404, 39.982085011617976 ] } },
{ "type": "Feature", "properties": { "OBJECTID": 207, "FISCAL_YEAR_COMPLETE": 2005, "PROJECT_NAME": "Presbyterian Homes", "DEVELOPER_NAME": "Presbyterian Homes", "ADDRESS": "501-35 JACKSON ST", "PROJECT_TYPE": "Rental", "TOTAL_UNITS": 67, "ACCESSIBLE_UNITS": null, "SENSORY_UNITS": null, "VISITABLE_UNITS": null }, "geometry": { "type": "Point", "coordinates": [ -75.155831117574181, 39.921502613771068 ] } },
{ "type": "Feature", "properties": { "OBJECTID": 208, "FISCAL_YEAR_COMPLETE": 2005, "PROJECT_NAME": "Homeownership Rehabilitation Program", "DEVELOPER_NAME": "Various", "ADDRESS": "Scattered", "PROJECT_TYPE": "Homeownership", "TOTAL_UNITS": 37, "ACCESSIBLE_UNITS": null, "SENSORY_UNITS": null, "VISITABLE_UNITS": null }, "geometry": null },
{ "type": "Feature", "properties": { "OBJECTID": 209, "FISCAL_YEAR_COMPLETE": 2005, "PROJECT_NAME": "YouthBuild", "DEVELOPER_NAME": "Universal Community Homes", "ADDRESS": "2120 CROSS ST", "PROJECT_TYPE": "Rental", "TOTAL_UNITS": 4, "ACCESSIBLE_UNITS": null, "SENSORY_UNITS": null, "VISITABLE_UNITS": null }, "geometry": { "type": "Point", "coordinates": [ -75.180369945548719, 39.932374308092655 ] } },
{ "type": "Feature", "properties": { "OBJECTID": 210, "FISCAL_YEAR_COMPLETE": 2004, "PROJECT_NAME": "Project Advantage", "DEVELOPER_NAME": "Resources for Human Development", "ADDRESS": "4700 E ROOSEVELT BLVD", "PROJECT_TYPE": "Special Needs", "TOTAL_UNITS": 12, "ACCESSIBLE_UNITS": null, "SENSORY_UNITS": null, "VISITABLE_UNITS": null }, "geometry": { "type": "Point", "coordinates": [ -75.098359395606792, 40.027965307251428 ] } },
{ "type": "Feature", "properties": { "OBJECTID": 211, "FISCAL_YEAR_COMPLETE": 2004, "PROJECT_NAME": "Visitation Transitional Housing", "DEVELOPER_NAME": "Catholic Charities Archdiocese", "ADDRESS": "2622-38 KENSINGTON AVE", "PROJECT_TYPE": "Special Needs", "TOTAL_UNITS": 18, "ACCESSIBLE_UNITS": null, "SENSORY_UNITS": null, "VISITABLE_UNITS": null }, "geometry": { "type": "Point", "coordinates": [ -75.126516502528787, 39.989510322407739 ] } },
{ "type": "Feature", "properties": { "OBJECTID": 212, "FISCAL_YEAR_COMPLETE": 2004, "PROJECT_NAME": "Chinatown North II", "DEVELOPER_NAME": "Phila Chinatown Dev Corp", "ADDRESS": "314 N 9TH ST", "PROJECT_TYPE": "Homeownership", "TOTAL_UNITS": 10, "ACCESSIBLE_UNITS": null, "SENSORY_UNITS": null, "VISITABLE_UNITS": null }, "geometry": { "type": "Point", "coordinates": [ -75.153953454991878, 39.957830439142676 ] } },
{ "type": "Feature", "properties": { "OBJECTID": 213, "FISCAL_YEAR_COMPLETE": 2004, "PROJECT_NAME": "Dignity Project III", "DEVELOPER_NAME": "Dignity Housing", "ADDRESS": "235 HANSBERRY ST", "PROJECT_TYPE": "Special Needs", "TOTAL_UNITS": 8, "ACCESSIBLE_UNITS": null, "SENSORY_UNITS": null, "VISITABLE_UNITS": null }, "geometry": { "type": "Point", "coordinates": [ -75.17234131180399, 40.0265553170454 ] } },
{ "type": "Feature", "properties": { "OBJECTID": 214, "FISCAL_YEAR_COMPLETE": 2004, "PROJECT_NAME": "Ruby Housing", "DEVELOPER_NAME": "PCAH", "ADDRESS": "129 N RUBY ST", "PROJECT_TYPE": "Special Needs", "TOTAL_UNITS": 11, "ACCESSIBLE_UNITS": null, "SENSORY_UNITS": null, "VISITABLE_UNITS": null }, "geometry": { "type": "Point", "coordinates": [ -75.227387880045498, 39.962658736037831 ] } },
{ "type": "Feature", "properties": { "OBJECTID": 215, "FISCAL_YEAR_COMPLETE": 2004, "PROJECT_NAME": "St. Ignatius Senior", "DEVELOPER_NAME": "St. Ignatius Nursing Home", "ADDRESS": "4400-58 FAIRMOUNT AVE", "PROJECT_TYPE": "Rental", "TOTAL_UNITS": 67, "ACCESSIBLE_UNITS": null, "SENSORY_UNITS": null, "VISITABLE_UNITS": null }, "geometry": { "type": "Point", "coordinates": [ -75.211475111691769, 39.963893581123827 ] } },
{ "type": "Feature", "properties": { "OBJECTID": 216, "FISCAL_YEAR_COMPLETE": 2004, "PROJECT_NAME": "Belmont Affordable IV", "DEVELOPER_NAME": "TJ Properties", "ADDRESS": "4221 PARRISH ST", "PROJECT_TYPE": "Rental", "TOTAL_UNITS": 11, "ACCESSIBLE_UNITS": null, "SENSORY_UNITS": null, "VISITABLE_UNITS": null }, "geometry": { "type": "Point", "coordinates": [ -75.208685665086037, 39.968025030389647 ] } },
{ "type": "Feature", "properties": { "OBJECTID": 217, "FISCAL_YEAR_COMPLETE": 2004, "PROJECT_NAME": "Calcutta House EXP", "DEVELOPER_NAME": "Calcutta House", "ADDRESS": "1221-33 N 19TH ST", "PROJECT_TYPE": "Special Needs", "TOTAL_UNITS": 9, "ACCESSIBLE_UNITS": null, "SENSORY_UNITS": null, "VISITABLE_UNITS": null }, "geometry": { "type": "Point", "coordinates": [ -75.166962693194165, 39.973599699080495 ] } },
{ "type": "Feature", "properties": { "OBJECTID": 218, "FISCAL_YEAR_COMPLETE": 2004, "PROJECT_NAME": "Elders Place 202", "DEVELOPER_NAME": "GGHDC", "ADDRESS": "76-88 COLLOM ST", "PROJECT_TYPE": "Rental", "TOTAL_UNITS": 40, "ACCESSIBLE_UNITS": null, "SENSORY_UNITS": null, "VISITABLE_UNITS": null }, "geometry": { "type": "Point", "coordinates": [ -75.164470639241458, 40.031913743818585 ] } },
{ "type": "Feature", "properties": { "OBJECTID": 219, "FISCAL_YEAR_COMPLETE": 2004, "PROJECT_NAME": "FOP Seniors", "DEVELOPER_NAME": "FOP", "ADDRESS": "730 BYBERRY RD", "PROJECT_TYPE": "Rental", "TOTAL_UNITS": 106, "ACCESSIBLE_UNITS": null, "SENSORY_UNITS": null, "VISITABLE_UNITS": null }, "geometry": { "type": "Point", "coordinates": [ -75.013546713024098, 40.121705124496067 ] } },
{ "type": "Feature", "properties": { "OBJECTID": 220, "FISCAL_YEAR_COMPLETE": 2004, "PROJECT_NAME": "La Torre", "DEVELOPER_NAME": "Norris Square", "ADDRESS": "104 W NORRIS ST", "PROJECT_TYPE": "Homeownership", "TOTAL_UNITS": 10, "ACCESSIBLE_UNITS": null, "SENSORY_UNITS": null, "VISITABLE_UNITS": null }, "geometry": { "type": "Point", "coordinates": [ -75.133890702193256, 39.980075177975309 ] } },
{ "type": "Feature", "properties": { "OBJECTID": 221, "FISCAL_YEAR_COMPLETE": 2004, "PROJECT_NAME": "31st & Berks", "DEVELOPER_NAME": "Friends Rehabilitation Program", "ADDRESS": "3104 W BERKS ST", "PROJECT_TYPE": "Homeownership", "TOTAL_UNITS": 10, "ACCESSIBLE_UNITS": null, "SENSORY_UNITS": null, "VISITABLE_UNITS": null }, "geometry": { "type": "Point", "coordinates": [ -75.184724606749, 39.985100833485646 ] } },
{ "type": "Feature", "properties": { "OBJECTID": 222, "FISCAL_YEAR_COMPLETE": 2004, "PROJECT_NAME": "Greenwich Whitman II", "DEVELOPER_NAME": "Community Ventures", "ADDRESS": "141 DURFOR ST", "PROJECT_TYPE": "Homeownership", "TOTAL_UNITS": 13, "ACCESSIBLE_UNITS": null, "SENSORY_UNITS": null, "VISITABLE_UNITS": null }, "geometry": { "type": "Point", "coordinates": [ -75.150096372066173, 39.918974584371384 ] } },
{ "type": "Feature", "properties": { "OBJECTID": 223, "FISCAL_YEAR_COMPLETE": 2004, "PROJECT_NAME": "Imani Homes III", "DEVELOPER_NAME": "PEC", "ADDRESS": "301 N 41ST ST", "PROJECT_TYPE": "Special Needs", "TOTAL_UNITS": 5, "ACCESSIBLE_UNITS": null, "SENSORY_UNITS": null, "VISITABLE_UNITS": null }, "geometry": { "type": "Point", "coordinates": [ -75.204938293845927, 39.959062955125617 ] } },
{ "type": "Feature", "properties": { "OBJECTID": 224, "FISCAL_YEAR_COMPLETE": 2004, "PROJECT_NAME": "Inglis Accessible Housing Initiative", "DEVELOPER_NAME": "11260 Housing Development Corporation", "ADDRESS": "11901-13 ACADEMY RD", "PROJECT_TYPE": "Special Needs", "TOTAL_UNITS": 11, "ACCESSIBLE_UNITS": null, "SENSORY_UNITS": null, "VISITABLE_UNITS": null }, "geometry": { "type": "Point", "coordinates": [ -74.982162063395123, 40.090692500589405 ] } },
{ "type": "Feature", "properties": { "OBJECTID": 225, "FISCAL_YEAR_COMPLETE": 2004, "PROJECT_NAME": "Jefferson Square", "DEVELOPER_NAME": "Jefferson Square CDC", "ADDRESS": "1209 S 4TH ST", "PROJECT_TYPE": "Homeownership", "TOTAL_UNITS": 6, "ACCESSIBLE_UNITS": null, "SENSORY_UNITS": null, "VISITABLE_UNITS": null }, "geometry": { "type": "Point", "coordinates": [ -75.150890461573667, 39.932944202523572 ] } },
{ "type": "Feature", "properties": { "OBJECTID": 226, "FISCAL_YEAR_COMPLETE": 2004, "PROJECT_NAME": "Center in the Park", "DEVELOPER_NAME": "Pennrose", "ADDRESS": "24-50 W RITTENHOUSE ST", "PROJECT_TYPE": "Rental", "TOTAL_UNITS": 70, "ACCESSIBLE_UNITS": null, "SENSORY_UNITS": null, "VISITABLE_UNITS": null }, "geometry": { "type": "Point", "coordinates": [ -75.176979776116852, 40.036900233707989 ] } },
{ "type": "Feature", "properties": { "OBJECTID": 227, "FISCAL_YEAR_COMPLETE": 2004, "PROJECT_NAME": "CBM Homeownership Zone Historic", "DEVELOPER_NAME": "PHDC", "ADDRESS": "1737 N 18TH ST", "PROJECT_TYPE": "Homeownership", "TOTAL_UNITS": 6, "ACCESSIBLE_UNITS": null, "SENSORY_UNITS": null, "VISITABLE_UNITS": null }, "geometry": { "type": "Point", "coordinates": [ -75.163774227334613, 39.980704736216808 ] } },
{ "type": "Feature", "properties": { "OBJECTID": 228, "FISCAL_YEAR_COMPLETE": 2004, "PROJECT_NAME": "CBM Homeownership Zone II", "DEVELOPER_NAME": "PHDC", "ADDRESS": "1400 N BOUVIER ST", "PROJECT_TYPE": "Homeownership", "TOTAL_UNITS": 43, "ACCESSIBLE_UNITS": null, "SENSORY_UNITS": null, "VISITABLE_UNITS": null }, "geometry": { "type": "Point", "coordinates": [ -75.164545766899678, 39.975624992240782 ] } },
{ "type": "Feature", "properties": { "OBJECTID": 229, "FISCAL_YEAR_COMPLETE": 2004, "PROJECT_NAME": "Homeownership Rehabilitation Program", "DEVELOPER_NAME": "Various", "ADDRESS": "Scattered", "PROJECT_TYPE": "Homeownership", "TOTAL_UNITS": 24, "ACCESSIBLE_UNITS": null, "SENSORY_UNITS": null, "VISITABLE_UNITS": null }, "geometry": null },
{ "type": "Feature", "properties": { "OBJECTID": 230, "FISCAL_YEAR_COMPLETE": 2004, "PROJECT_NAME": "Homestart", "DEVELOPER_NAME": "PHDC", "ADDRESS": "2618 SEYBERT ST", "PROJECT_TYPE": "Homeownership", "TOTAL_UNITS": 4, "ACCESSIBLE_UNITS": null, "SENSORY_UNITS": null, "VISITABLE_UNITS": null }, "geometry": { "type": "Point", "coordinates": [ -75.178993491183476, 39.976094580436936 ] } },
{ "type": "Feature", "properties": { "OBJECTID": 231, "FISCAL_YEAR_COMPLETE": 2004, "PROJECT_NAME": "Mend II", "DEVELOPER_NAME": "Various", "ADDRESS": "Scattered", "PROJECT_TYPE": "Rental", "TOTAL_UNITS": 8, "ACCESSIBLE_UNITS": null, "SENSORY_UNITS": null, "VISITABLE_UNITS": null }, "geometry": null },
{ "type": "Feature", "properties": { "OBJECTID": 232, "FISCAL_YEAR_COMPLETE": 2003, "PROJECT_NAME": "MLK Phase III Demolition", "DEVELOPER_NAME": "Pennrose, Universal", "ADDRESS": "vic. 12th, 13th", "PROJECT_TYPE": "Rental", "TOTAL_UNITS": 45, "ACCESSIBLE_UNITS": null, "SENSORY_UNITS": null, "VISITABLE_UNITS": null }, "geometry": { "type": "Point", "coordinates": [ -75.162796201550464, 39.939498023713782 ] } },
{ "type": "Feature", "properties": { "OBJECTID": 233, "FISCAL_YEAR_COMPLETE": 2003, "PROJECT_NAME": "Interim House West", "DEVELOPER_NAME": "Phila Health Mgmt Corp", "ADDRESS": "4108-20 PARKSIDE AVE", "PROJECT_TYPE": "Special Needs", "TOTAL_UNITS": 20, "ACCESSIBLE_UNITS": null, "SENSORY_UNITS": null, "VISITABLE_UNITS": null }, "geometry": { "type": "Point", "coordinates": [ -75.207574811839976, 39.975163854762222 ] } },
{ "type": "Feature", "properties": { "OBJECTID": 234, "FISCAL_YEAR_COMPLETE": 2003, "PROJECT_NAME": "Avondale Housing", "DEVELOPER_NAME": "PCAH", "ADDRESS": "110 N PEACH ST", "PROJECT_TYPE": "Special Needs", "TOTAL_UNITS": 18, "ACCESSIBLE_UNITS": null, "SENSORY_UNITS": null, "VISITABLE_UNITS": null }, "geometry": { "type": "Point", "coordinates": [ -75.227255983653492, 39.962229280348552 ] } },
{ "type": "Feature", "properties": { "OBJECTID": 235, "FISCAL_YEAR_COMPLETE": 2003, "PROJECT_NAME": "Imani Homes II", "DEVELOPER_NAME": "PEC", "ADDRESS": "310 N 41ST ST", "PROJECT_TYPE": "Special Needs", "TOTAL_UNITS": 7, "ACCESSIBLE_UNITS": null, "SENSORY_UNITS": null, "VISITABLE_UNITS": null }, "geometry": { "type": "Point", "coordinates": [ -75.205529997490714, 39.959268626067228 ] } },
{ "type": "Feature", "properties": { "OBJECTID": 236, "FISCAL_YEAR_COMPLETE": 2003, "PROJECT_NAME": "Spring Garden", "DEVELOPER_NAME": "Community Builders", "ADDRESS": "1711-13 WALLACE ST", "PROJECT_TYPE": "Rental", "TOTAL_UNITS": 49, "ACCESSIBLE_UNITS": null, "SENSORY_UNITS": null, "VISITABLE_UNITS": null }, "geometry": { "type": "Point", "coordinates": [ -75.166114770346837, 39.966026748511425 ] } },
{ "type": "Feature", "properties": { "OBJECTID": 237, "FISCAL_YEAR_COMPLETE": 2003, "PROJECT_NAME": "Spring Garden", "DEVELOPER_NAME": "Community Builders", "ADDRESS": "Scattered", "PROJECT_TYPE": "Rental", "TOTAL_UNITS": 48, "ACCESSIBLE_UNITS": null, "SENSORY_UNITS": null, "VISITABLE_UNITS": null }, "geometry": { "type": "Point", "coordinates": [ -75.169483052838189, 39.963753807571074 ] } },
{ "type": "Feature", "properties": { "OBJECTID": 238, "FISCAL_YEAR_COMPLETE": 2003, "PROJECT_NAME": "500 Emily Street Revitalization", "DEVELOPER_NAME": "United Communities CDC", "ADDRESS": "514 EMILY ST", "PROJECT_TYPE": "Homeownership", "TOTAL_UNITS": 5, "ACCESSIBLE_UNITS": null, "SENSORY_UNITS": null, "VISITABLE_UNITS": null }, "geometry": { "type": "Point", "coordinates": [ -75.155575634272466, 39.92326376934345 ] } },
{ "type": "Feature", "properties": { "OBJECTID": 239, "FISCAL_YEAR_COMPLETE": 2003, "PROJECT_NAME": "APM Norris Street Homeownership", "DEVELOPER_NAME": "APM", "ADDRESS": "1711 N FRANKLIN ST", "PROJECT_TYPE": "Homeownership", "TOTAL_UNITS": 50, "ACCESSIBLE_UNITS": null, "SENSORY_UNITS": null, "VISITABLE_UNITS": null }, "geometry": { "type": "Point", "coordinates": [ -75.147280747807798, 39.977967620211039 ] } },
{ "type": "Feature", "properties": { "OBJECTID": 240, "FISCAL_YEAR_COMPLETE": 2003, "PROJECT_NAME": "Melville Way", "DEVELOPER_NAME": "Traveler Aid - Melville Way", "ADDRESS": "4520-22 WALNUT ST", "PROJECT_TYPE": "Special Needs", "TOTAL_UNITS": 8, "ACCESSIBLE_UNITS": null, "SENSORY_UNITS": null, "VISITABLE_UNITS": null }, "geometry": { "type": "Point", "coordinates": [ -75.212693920414821, 39.955106589388237 ] } },
{ "type": "Feature", "properties": { "OBJECTID": 241, "FISCAL_YEAR_COMPLETE": 2003, "PROJECT_NAME": "Partnership CDC", "DEVELOPER_NAME": "Partnership CDC", "ADDRESS": "14 S 51ST ST", "PROJECT_TYPE": "Homeownership", "TOTAL_UNITS": 8, "ACCESSIBLE_UNITS": null, "SENSORY_UNITS": null, "VISITABLE_UNITS": null }, "geometry": { "type": "Point", "coordinates": [ -75.223247673306261, 39.959301023206109 ] } },
{ "type": "Feature", "properties": { "OBJECTID": 242, "FISCAL_YEAR_COMPLETE": 2003, "PROJECT_NAME": "Elkins Residence", "DEVELOPER_NAME": "Albert Einstein", "ADDRESS": "5401-65 OLD YORK RD", "PROJECT_TYPE": "Special Needs", "TOTAL_UNITS": 73, "ACCESSIBLE_UNITS": null, "SENSORY_UNITS": null, "VISITABLE_UNITS": null }, "geometry": { "type": "Point", "coordinates": [ -75.14274501537156, 40.036582020110338 ] } },
{ "type": "Feature", "properties": { "OBJECTID": 243, "FISCAL_YEAR_COMPLETE": 2003, "PROJECT_NAME": "Cecil B. Moore Homeownership Zone I-A-1", "DEVELOPER_NAME": "CBM HDC\/PHDC", "ADDRESS": "1623-31 N 18TH ST", "PROJECT_TYPE": "Homeownership", "TOTAL_UNITS": 3, "ACCESSIBLE_UNITS": null, "SENSORY_UNITS": null, "VISITABLE_UNITS": null }, "geometry": { "type": "Point", "coordinates": [ -75.164137641043581, 39.978891019289172 ] } },
{ "type": "Feature", "properties": { "OBJECTID": 244, "FISCAL_YEAR_COMPLETE": 2003, "PROJECT_NAME": "Cecil B. Moore Homeownership Zone I-B", "DEVELOPER_NAME": "CBM HDC\/PHDC", "ADDRESS": "1400 N GRATZ ST", "PROJECT_TYPE": "Homeownership", "TOTAL_UNITS": 39, "ACCESSIBLE_UNITS": null, "SENSORY_UNITS": null, "VISITABLE_UNITS": null }, "geometry": { "type": "Point", "coordinates": [ -75.166112783024118, 39.975938233978155 ] } },