{
"type": "FeatureCollection",
"name": "PPR_Tennis_Courts",
"crs": { "type": "name", "properties": { "name": "urn:ogc:def:crs:OGC:1.3:CRS84" } },
"features": [
{ "type": "Feature", "properties": { "OBJECTID": 1, "PARK_NAME": "Franklin Delano Roosevelt Park", "COURT_NUMBER": 5, "COMMENTS": null, "DATA_SOURCE": "NATUREPHL, Pictometry 2020" }, "geometry": { "type": "Point", "coordinates": [ -75.176242666413401, 39.904387529104902 ] } },
{ "type": "Feature", "properties": { "OBJECTID": 2, "PARK_NAME": "Hunting Park", "COURT_NUMBER": 1, "COMMENTS": null, "DATA_SOURCE": "NATUREPHL, Pictometry 2020" }, "geometry": { "type": "Point", "coordinates": [ -75.141894002602896, 40.015176570580699 ] } },
{ "type": "Feature", "properties": { "OBJECTID": 3, "PARK_NAME": "Fisher Park", "COURT_NUMBER": 2, "COMMENTS": null, "DATA_SOURCE": "Pictometry 2020" }, "geometry": { "type": "Point", "coordinates": [ -75.131296980008202, 40.043767321153098 ] } },
{ "type": "Feature", "properties": { "OBJECTID": 4, "PARK_NAME": "Eastwick Regional Playground", "COURT_NUMBER": 3, "COMMENTS": "Renovated in 2021 (share pickleball)", "DATA_SOURCE": "NearMap 2021; Capital Drawings 2021" }, "geometry": { "type": "Point", "coordinates": [ -75.250577712197995, 39.9047742994955 ] } },
{ "type": "Feature", "properties": { "OBJECTID": 5, "PARK_NAME": "Wisters Woods Park", "COURT_NUMBER": 0, "COMMENTS": null, "DATA_SOURCE": "Pictometry 2020" }, "geometry": { "type": "Point", "coordinates": [ -75.158254733309903, 40.034538801939703 ] } },
{ "type": "Feature", "properties": { "OBJECTID": 6, "PARK_NAME": "Wissinoming Park", "COURT_NUMBER": 1, "COMMENTS": null, "DATA_SOURCE": "NATUREPHL and Pictometry 2020" }, "geometry": { "type": "Point", "coordinates": [ -75.069998547599496, 40.025166918375596 ] } },
{ "type": "Feature", "properties": { "OBJECTID": 7, "PARK_NAME": "Fernhill Park", "COURT_NUMBER": 2, "COMMENTS": null, "DATA_SOURCE": "NATUREPHL, Pictometry 2020" }, "geometry": { "type": "Point", "coordinates": [ -75.168683839721595, 40.020662885923002 ] } },
{ "type": "Feature", "properties": { "OBJECTID": 8, "PARK_NAME": "Disston Park", "COURT_NUMBER": 2, "COMMENTS": null, "DATA_SOURCE": "NATUREPHL and NearMap2021" }, "geometry": { "type": "Point", "coordinates": [ -75.048696389671306, 40.018816635672103 ] } },
{ "type": "Feature", "properties": { "OBJECTID": 9, "PARK_NAME": "Jim Junod Recreation Center", "COURT_NUMBER": 1, "COMMENTS": null, "DATA_SOURCE": "Pictometry 2020" }, "geometry": { "type": "Point", "coordinates": [ -74.969790466480902, 40.103525200202199 ] } },
{ "type": "Feature", "properties": { "OBJECTID": 10, "PARK_NAME": "Michael Palmer Playground", "COURT_NUMBER": 1, "COMMENTS": null, "DATA_SOURCE": "Pictometry 2020" }, "geometry": { "type": "Point", "coordinates": [ -74.9892914007538, 40.094846829713802 ] } },
{ "type": "Feature", "properties": { "OBJECTID": 11, "PARK_NAME": "J Francis Finnegan Playground", "COURT_NUMBER": 3, "COMMENTS": null, "DATA_SOURCE": "NATUREPHL, Pictometry 2020" }, "geometry": { "type": "Point", "coordinates": [ -75.232013800788806, 39.914171364396303 ] } },
{ "type": "Feature", "properties": { "OBJECTID": 12, "PARK_NAME": "Lawncrest Recreation Center", "COURT_NUMBER": 2, "COMMENTS": null, "DATA_SOURCE": "NATUREPHL and Pictometry 2020" }, "geometry": { "type": "Point", "coordinates": [ -75.101116718994803, 40.046469629743797 ] } },
{ "type": "Feature", "properties": { "OBJECTID": 13, "PARK_NAME": "Joseph F Vogt Playground", "COURT_NUMBER": 1, "COMMENTS": null, "DATA_SOURCE": "NATUREPHL and Pictometry 2020" }, "geometry": { "type": "Point", "coordinates": [ -75.047920910660196, 40.028392914114498 ] } },
{ "type": "Feature", "properties": { "OBJECTID": 14, "PARK_NAME": "Fox Chase Recreation Center", "COURT_NUMBER": 2, "COMMENTS": "Fox Chase School Playground", "DATA_SOURCE": "NATUREPHL and Pictometry 2020" }, "geometry": { "type": "Point", "coordinates": [ -75.081458698275995, 40.0743140414233 ] } },
{ "type": "Feature", "properties": { "OBJECTID": 15, "PARK_NAME": "Torresdale Recreation Center", "COURT_NUMBER": 1, "COMMENTS": null, "DATA_SOURCE": "NATUREPHL and NearMap2021" }, "geometry": { "type": "Point", "coordinates": [ -74.9980963170118, 40.059184150405102 ] } },
{ "type": "Feature", "properties": { "OBJECTID": 16, "PARK_NAME": "William B Simons Recreation Center", "COURT_NUMBER": 1, "COMMENTS": null, "DATA_SOURCE": "NATUREPHL, Pictometry 2020" }, "geometry": { "type": "Point", "coordinates": [ -75.158307892036106, 40.061742297977901 ] } },
{ "type": "Feature", "properties": { "OBJECTID": 17, "PARK_NAME": "Olney Recreation Center", "COURT_NUMBER": 1, "COMMENTS": null, "DATA_SOURCE": "NATUREPHL, Pictometry 2020" }, "geometry": { "type": "Point", "coordinates": [ -75.116413112950596, 40.042281556287399 ] } },
{ "type": "Feature", "properties": { "OBJECTID": 18, "PARK_NAME": "Charles A Russo Playground", "COURT_NUMBER": 2, "COMMENTS": null, "DATA_SOURCE": "Pictometry 2020" }, "geometry": { "type": "Point", "coordinates": [ -75.033779066700404, 40.029030180139401 ] } },
{ "type": "Feature", "properties": { "OBJECTID": 19, "PARK_NAME": "Max Myers Playground", "COURT_NUMBER": 4, "COMMENTS": null, "DATA_SOURCE": "NATUREPHL and Pictometry 2020" }, "geometry": { "type": "Point", "coordinates": [ -75.071569400509503, 40.039087893175001 ] } },
{ "type": "Feature", "properties": { "OBJECTID": 20, "PARK_NAME": "Gustine Recreation Center", "COURT_NUMBER": 0, "COMMENTS": null, "DATA_SOURCE": "Pictometry 2020" }, "geometry": { "type": "Point", "coordinates": [ -75.203566432857897, 40.012692506326303 ] } },
{ "type": "Feature", "properties": { "OBJECTID": 21, "PARK_NAME": "William A Lackman Memorial Playground", "COURT_NUMBER": 1, "COMMENTS": null, "DATA_SOURCE": "NATUREPHL and Pictometry 2020" }, "geometry": { "type": "Point", "coordinates": [ -75.0334354676109, 40.100055042354803 ] } },
{ "type": "Feature", "properties": { "OBJECTID": 22, "PARK_NAME": "George C Pelbano Playground", "COURT_NUMBER": 1, "COMMENTS": "Lights for court exist. No Court Number Sign.", "DATA_SOURCE": "Pictometry 2020;GIS Field Verified 9/22/20" }, "geometry": { "type": "Point", "coordinates": [ -75.051418032009906, 40.061831210658802 ] } },
{ "type": "Feature", "properties": { "OBJECTID": 23, "PARK_NAME": "Thomas E Jardel Memorial Field", "COURT_NUMBER": 2, "COMMENTS": null, "DATA_SOURCE": "Pictometry 2020" }, "geometry": { "type": "Point", "coordinates": [ -75.076942901637395, 40.0566569060869 ] } },
{ "type": "Feature", "properties": { "OBJECTID": 24, "PARK_NAME": "Daniel Boyle Memorial Recreation Center", "COURT_NUMBER": 2, "COMMENTS": null, "DATA_SOURCE": "Pictometry 2020" }, "geometry": { "type": "Point", "coordinates": [ -75.006959461263307, 40.122368952132703 ] } },
{ "type": "Feature", "properties": { "OBJECTID": 25, "PARK_NAME": "Stenton Park", "COURT_NUMBER": 0, "COMMENTS": null, "DATA_SOURCE": "2015 Final Plan for Stenton Park Playground Reconstruction, Pictometry 2020" }, "geometry": { "type": "Point", "coordinates": [ -75.152669009687003, 40.023838740313103 ] } },
{ "type": "Feature", "properties": { "OBJECTID": 26, "PARK_NAME": "Water Tower Recreation Center", "COURT_NUMBER": 1, "COMMENTS": null, "DATA_SOURCE": "NATUREPHL, Pictometry 2020" }, "geometry": { "type": "Point", "coordinates": [ -75.200436343244306, 40.074929316666001 ] } },
{ "type": "Feature", "properties": { "OBJECTID": 27, "PARK_NAME": "Pepper School Playground", "COURT_NUMBER": 1, "COMMENTS": null, "DATA_SOURCE": "NATUREPHL, Pictometry 2020" }, "geometry": { "type": "Point", "coordinates": [ -75.249037554925707, 39.896299670032398 ] } },
{ "type": "Feature", "properties": { "OBJECTID": 28, "PARK_NAME": "Elizabeth M Picariello Playground", "COURT_NUMBER": 1, "COMMENTS": null, "DATA_SOURCE": "Pictometry 2020" }, "geometry": { "type": "Point", "coordinates": [ -74.9888674745103, 40.079924835046597 ] } },
{ "type": "Feature", "properties": { "OBJECTID": 29, "PARK_NAME": "Reyburn Park", "COURT_NUMBER": 1, "COMMENTS": null, "DATA_SOURCE": "Pictometry 2020" }, "geometry": { "type": "Point", "coordinates": [ -75.165524291631598, 39.994785703554598 ] } },
{ "type": "Feature", "properties": { "OBJECTID": 30, "PARK_NAME": "Bridesburg Recreation Center", "COURT_NUMBER": 2, "COMMENTS": null, "DATA_SOURCE": "Pictometry 2020" }, "geometry": { "type": "Point", "coordinates": [ -75.068524437913595, 39.999362002441401 ] } },
{ "type": "Feature", "properties": { "OBJECTID": 31, "PARK_NAME": "Francis J Myers Recreation Center", "COURT_NUMBER": 1, "COMMENTS": null, "DATA_SOURCE": "NearMap 2021" }, "geometry": { "type": "Point", "coordinates": [ -75.228787055877405, 39.933979002534898 ] } },
{ "type": "Feature", "properties": { "OBJECTID": 32, "PARK_NAME": "Harry S McDevitt Playground", "COURT_NUMBER": 1, "COMMENTS": null, "DATA_SOURCE": "Pictometry 2020" }, "geometry": { "type": "Point", "coordinates": [ -75.187158560797101, 40.008929610451098 ] } },
{ "type": "Feature", "properties": { "OBJECTID": 33, "PARK_NAME": "Thomas Mitchell Playground", "COURT_NUMBER": 2, "COMMENTS": null, "DATA_SOURCE": "NATUREPHL and Pictometry 2020" }, "geometry": { "type": "Point", "coordinates": [ -74.991931664235693, 40.068575859746502 ] } },
{ "type": "Feature", "properties": { "OBJECTID": 34, "PARK_NAME": "Charles M Finley Playground", "COURT_NUMBER": 2, "COMMENTS": null, "DATA_SOURCE": "NATUREPHL, Pictometry 2020" }, "geometry": { "type": "Point", "coordinates": [ -75.169814267373397, 40.064124112994797 ] } },
{ "type": "Feature", "properties": { "OBJECTID": 35, "PARK_NAME": "Tomlinson and Gifford Playground", "COURT_NUMBER": 1, "COMMENTS": null, "DATA_SOURCE": "NATUREPHL and Pictometry 2020" }, "geometry": { "type": "Point", "coordinates": [ -75.024300419611905, 40.1154737849998 ] } },
{ "type": "Feature", "properties": { "OBJECTID": 36, "PARK_NAME": "Morris Estate Cultural Center", "COURT_NUMBER": 1, "COMMENTS": null, "DATA_SOURCE": "NATUREPHL, Pictometry 2020" }, "geometry": { "type": "Point", "coordinates": [ -75.146840632660101, 40.050302069564502 ] } },
{ "type": "Feature", "properties": { "OBJECTID": 37, "PARK_NAME": "Frank McArdle Memorial Recreation Center", "COURT_NUMBER": 2, "COMMENTS": null, "DATA_SOURCE": "NATUREPHL and NearMap2021" }, "geometry": { "type": "Point", "coordinates": [ -75.0273380434475, 40.060773927003801 ] } },
{ "type": "Feature", "properties": { "OBJECTID": 38, "PARK_NAME": "Boniface Piccoli Playground", "COURT_NUMBER": 2, "COMMENTS": null, "DATA_SOURCE": "Pictometry 2020" }, "geometry": { "type": "Point", "coordinates": [ -75.095918774964204, 40.012889780004599 ] } },
{ "type": "Feature", "properties": { "OBJECTID": 39, "PARK_NAME": "Helen G Sturgis Playground", "COURT_NUMBER": 1, "COMMENTS": null, "DATA_SOURCE": "Pictometry 2020" }, "geometry": { "type": "Point", "coordinates": [ -75.124361072770597, 40.049535146826003 ] } },
{ "type": "Feature", "properties": { "OBJECTID": 40, "PARK_NAME": "John L Barrett Playground", "COURT_NUMBER": 2, "COMMENTS": null, "DATA_SOURCE": "NATUREPHL, Pictometry 2020" }, "geometry": { "type": "Point", "coordinates": [ -75.135911434739597, 40.029609379723802 ] } },
{ "type": "Feature", "properties": { "OBJECTID": 41, "PARK_NAME": "A Albert Cherashore Playground", "COURT_NUMBER": 2, "COMMENTS": null, "DATA_SOURCE": "NATUREPHL, Pictometry 2020" }, "geometry": { "type": "Point", "coordinates": [ -75.137271172714904, 40.037904840702097 ] } },
{ "type": "Feature", "properties": { "OBJECTID": 42, "PARK_NAME": "West Mill Creek Playground", "COURT_NUMBER": 2, "COMMENTS": null, "DATA_SOURCE": "Pictometry 2020" }, "geometry": { "type": "Point", "coordinates": [ -75.225063354160497, 39.969301130336099 ] } },
{ "type": "Feature", "properties": { "OBJECTID": 43, "PARK_NAME": "11th and Cecil B Moore Playground", "COURT_NUMBER": 1, "COMMENTS": null, "DATA_SOURCE": "NATUREPHL, Pictometry 2020" }, "geometry": { "type": "Point", "coordinates": [ -75.151095017520504, 39.979064876493901 ] } },
{ "type": "Feature", "properties": { "OBJECTID": 44, "PARK_NAME": "Waterview Recreation Center", "COURT_NUMBER": 1, "COMMENTS": null, "DATA_SOURCE": "NATUREPHL, Pictometry 2020" }, "geometry": { "type": "Point", "coordinates": [ -75.167968229689293, 40.045120859566701 ] } },
{ "type": "Feature", "properties": { "OBJECTID": 45, "PARK_NAME": "East Poplar Playground", "COURT_NUMBER": 2, "COMMENTS": "Renovated 2021", "DATA_SOURCE": "NearMap2021" }, "geometry": { "type": "Point", "coordinates": [ -75.151103714774607, 39.967369146360198 ] } },
{ "type": "Feature", "properties": { "OBJECTID": 46, "PARK_NAME": "Pleasant Playground", "COURT_NUMBER": 1, "COMMENTS": null, "DATA_SOURCE": "Pictometry 2020" }, "geometry": { "type": "Point", "coordinates": [ -75.182977120537799, 40.0568903588617 ] } },
{ "type": "Feature", "properties": { "OBJECTID": 47, "PARK_NAME": "Happy Hollow Recreation Center", "COURT_NUMBER": 2, "COMMENTS": null, "DATA_SOURCE": "NATUREPHL, NearMap2021" }, "geometry": { "type": "Point", "coordinates": [ -75.166458540726296, 40.023221666503403 ] } },
{ "type": "Feature", "properties": { "OBJECTID": 48, "PARK_NAME": "CCA Baldi School Playground", "COURT_NUMBER": 1, "COMMENTS": null, "DATA_SOURCE": "NATUREPHL and Pictometry 2020" }, "geometry": { "type": "Point", "coordinates": [ -75.050992728628898, 40.091774711722302 ] } },
{ "type": "Feature", "properties": { "OBJECTID": 49, "PARK_NAME": "Reverend M Monkiewicz Recreation Center", "COURT_NUMBER": 2, "COMMENTS": null, "DATA_SOURCE": "Pictometry 2020" }, "geometry": { "type": "Point", "coordinates": [ -75.100821284461901, 39.982737184526599 ] } },
{ "type": "Feature", "properties": { "OBJECTID": 50, "PARK_NAME": "Wharton Square", "COURT_NUMBER": 1, "COMMENTS": null, "DATA_SOURCE": "NATUREPHL, Pictometry 2020" }, "geometry": { "type": "Point", "coordinates": [ -75.183760380846195, 39.935378520599699 ] } },
{ "type": "Feature", "properties": { "OBJECTID": 51, "PARK_NAME": "Commodore John Barry Playground", "COURT_NUMBER": 1, "COMMENTS": null, "DATA_SOURCE": "NATUREPHL, Pictometry 2020" }, "geometry": { "type": "Point", "coordinates": [ -75.178300652561305, 39.916068617531799 ] } },
{ "type": "Feature", "properties": { "OBJECTID": 52, "PARK_NAME": "Marie Dendy Recreation Center", "COURT_NUMBER": 1, "COMMENTS": null, "DATA_SOURCE": "NATUREPHL, Pictometry 2020" }, "geometry": { "type": "Point", "coordinates": [ -75.151266892508104, 39.975079298829002 ] } },
{ "type": "Feature", "properties": { "OBJECTID": 53, "PARK_NAME": "Albert W Christy Sr Recreation Center", "COURT_NUMBER": 2, "COMMENTS": null, "DATA_SOURCE": "Pictometry 2020" }, "geometry": { "type": "Point", "coordinates": [ -75.235060967331293, 39.949024771398697 ] } },
{ "type": "Feature", "properties": { "OBJECTID": 54, "PARK_NAME": "Penrose Memorial Playground", "COURT_NUMBER": 1, "COMMENTS": null, "DATA_SOURCE": "NATUREPHL, Pictometry 2020" }, "geometry": { "type": "Point", "coordinates": [ -75.151521417452898, 39.985928096722702 ] } },
{ "type": "Feature", "properties": { "OBJECTID": 55, "PARK_NAME": "Charles T Mitchell Jr (Seger) Park", "COURT_NUMBER": 1, "COMMENTS": "2 Pickleball Courts; Building is named for Charles Seger (1977); Site is named for Charles T Mitchell Jr (1976).", "DATA_SOURCE": "NearMap 2021; Communications 2022" }, "geometry": { "type": "Point", "coordinates": [ -75.1590546647965, 39.943509513109099 ] } },
{ "type": "Feature", "properties": { "OBJECTID": 56, "PARK_NAME": "Hawthorne Cultural Center", "COURT_NUMBER": 0, "COMMENTS": null, "DATA_SOURCE": "Pictometry 2020" }, "geometry": { "type": "Point", "coordinates": [ -75.163745817704196, 39.938298902889699 ] } },
{ "type": "Feature", "properties": { "OBJECTID": 57, "PARK_NAME": "Weccacoe Square", "COURT_NUMBER": 0, "COMMENTS": null, "DATA_SOURCE": "Pictometry 2020" }, "geometry": { "type": "Point", "coordinates": [ -75.150868760498398, 39.938157171124203 ] } },
{ "type": "Feature", "properties": { "OBJECTID": 58, "PARK_NAME": "Garden Court", "COURT_NUMBER": 1, "COMMENTS": null, "DATA_SOURCE": "NATUREPHL, Pictometry 2020" }, "geometry": { "type": "Point", "coordinates": [ -75.216570497697504, 39.953148902224598 ] } },
{ "type": "Feature", "properties": { "OBJECTID": 59, "PARK_NAME": "Allens Lane Art Center", "COURT_NUMBER": 0, "COMMENTS": null, "DATA_SOURCE": "NATUREPHL, Pictometry 2020" }, "geometry": { "type": "Point", "coordinates": [ -75.202628260340802, 40.051441248739998 ] } },
{ "type": "Feature", "properties": { "OBJECTID": 60, "PARK_NAME": "Kingsessing Recreation Center", "COURT_NUMBER": 1, "COMMENTS": null, "DATA_SOURCE": "NATUREPHL, Pictometry 2020" }, "geometry": { "type": "Point", "coordinates": [ -75.218348966386003, 39.942467244893002 ] } },
{ "type": "Feature", "properties": { "OBJECTID": 61, "PARK_NAME": "Officer Robert Hayes Memorial Playground", "COURT_NUMBER": 2, "COMMENTS": null, "DATA_SOURCE": "NATUREPHL and NearMap2021" }, "geometry": { "type": "Point", "coordinates": [ -75.021540726590999, 40.091483966089697 ] } },
{ "type": "Feature", "properties": { "OBJECTID": 62, "PARK_NAME": "John A Lee Cultural Center", "COURT_NUMBER": 0, "COMMENTS": null, "DATA_SOURCE": "NATUREPHL, Pictometry 2020" }, "geometry": { "type": "Point", "coordinates": [ -75.210738154091601, 39.960965895280196 ] } },
{ "type": "Feature", "properties": { "OBJECTID": 63, "PARK_NAME": "Garland and Bingham Fields", "COURT_NUMBER": 0, "COMMENTS": null, "DATA_SOURCE": "Pictometry 2020" }, "geometry": { "type": "Point", "coordinates": [ -75.110320864118904, 40.033710498436903 ] } },
{ "type": "Feature", "properties": { "OBJECTID": 64, "PARK_NAME": "Rufus O Williams Memorial Playground", "COURT_NUMBER": 3, "COMMENTS": null, "DATA_SOURCE": "Pictometry 2020" }, "geometry": { "type": "Point", "coordinates": [ -75.249764112948796, 39.950636023758797 ] } },
{ "type": "Feature", "properties": { "OBJECTID": 65, "PARK_NAME": "Samuel Rose Recreation Center", "COURT_NUMBER": 1, "COMMENTS": null, "DATA_SOURCE": "Pictometry 2020" }, "geometry": { "type": "Point", "coordinates": [ -75.260596949833101, 39.973607132620003 ] } },
{ "type": "Feature", "properties": { "OBJECTID": 66, "PARK_NAME": "Samuel F Houston Playground", "COURT_NUMBER": 2, "COMMENTS": null, "DATA_SOURCE": "Pictometry 2020" }, "geometry": { "type": "Point", "coordinates": [ -75.2318237369511, 40.069928523888798 ] } },
{ "type": "Feature", "properties": { "OBJECTID": 67, "PARK_NAME": "Joseph E Mander Playground", "COURT_NUMBER": 10, "COMMENTS": null, "DATA_SOURCE": "NATUREPHL, Pictometry 2020" }, "geometry": { "type": "Point", "coordinates": [ -75.188319460753803, 39.990993762805402 ] } },
{ "type": "Feature", "properties": { "OBJECTID": 68, "PARK_NAME": "William H (Billy) Markward Memorial Playground", "COURT_NUMBER": 1, "COMMENTS": null, "DATA_SOURCE": "NATUREPHL, Pictometry 2020" }, "geometry": { "type": "Point", "coordinates": [ -75.1828087133769, 39.948066415678198 ] } },
{ "type": "Feature", "properties": { "OBJECTID": 69, "PARK_NAME": "Awbury Park and Recreation Center", "COURT_NUMBER": 8, "COMMENTS": null, "DATA_SOURCE": "Pictometry 2020" }, "geometry": { "type": "Point", "coordinates": [ -75.163766190585605, 40.052853157015903 ] } },
{ "type": "Feature", "properties": { "OBJECTID": 70, "PARK_NAME": "Parkside Evans Recreation Center", "COURT_NUMBER": 5, "COMMENTS": null, "DATA_SOURCE": "NATUREPHL, Pictometry 2020" }, "geometry": { "type": "Point", "coordinates": [ -75.226373434470602, 39.983975617127101 ] } },
{ "type": "Feature", "properties": { "OBJECTID": 71, "PARK_NAME": "Chamounix Tennis Courts", "COURT_NUMBER": 6, "COMMENTS": null, "DATA_SOURCE": "Pictometry 2020" }, "geometry": { "type": "Point", "coordinates": [ -75.201421291493304, 39.999314334305502 ] } },
{ "type": "Feature", "properties": { "OBJECTID": 72, "PARK_NAME": "Franklin Delano Roosevelt Park", "COURT_NUMBER": 13, "COMMENTS": "Pickleball Court", "DATA_SOURCE": "Pictometry 2020; FDR Park Manager 05/2021" }, "geometry": { "type": "Point", "coordinates": [ -75.185143633089197, 39.898445222987398 ] } },
{ "type": "Feature", "properties": { "OBJECTID": 73, "PARK_NAME": "Max Myers Playground", "COURT_NUMBER": 0, "COMMENTS": "Quickstart tennis court", "DATA_SOURCE": "Pictometry 2020" }, "geometry": { "type": "Point", "coordinates": [ -75.071102101934599, 40.038160993260199 ] } },
{ "type": "Feature", "properties": { "OBJECTID": 74, "PARK_NAME": "William H (Billy) Markward Memorial Playground", "COURT_NUMBER": 0, "COMMENTS": "Quickstart tennis court", "DATA_SOURCE": "Pictometry 2020" }, "geometry": { "type": "Point", "coordinates": [ -75.1831627254995, 39.948407806601701 ] } },
{ "type": "Feature", "properties": { "OBJECTID": 75, "PARK_NAME": "11th and Cecil B Moore Playground", "COURT_NUMBER": 2, "COMMENTS": null, "DATA_SOURCE": "NATUREPHL, Pictometry 2020" }, "geometry": { "type": "Point", "coordinates": [ -75.150925459749402, 39.979041964592199 ] } },
{ "type": "Feature", "properties": { "OBJECTID": 76, "PARK_NAME": "Allens Lane Art Center", "COURT_NUMBER": 0, "COMMENTS": null, "DATA_SOURCE": "NATUREPHL, Pictometry 2020" }, "geometry": { "type": "Point", "coordinates": [ -75.202758533384895, 40.051524236314798 ] } },
{ "type": "Feature", "properties": { "OBJECTID": 77, "PARK_NAME": "Allens Lane Art Center", "COURT_NUMBER": 0, "COMMENTS": null, "DATA_SOURCE": "NATUREPHL, Pictometry 2020" }, "geometry": { "type": "Point", "coordinates": [ -75.202869035135294, 40.051720735945402 ] } },
{ "type": "Feature", "properties": { "OBJECTID": 78, "PARK_NAME": "Allens Lane Art Center", "COURT_NUMBER": 0, "COMMENTS": null, "DATA_SOURCE": "NATUREPHL, Pictometry 2020" }, "geometry": { "type": "Point", "coordinates": [ -75.203169876902095, 40.051441337644903 ] } },
{ "type": "Feature", "properties": { "OBJECTID": 79, "PARK_NAME": "Awbury Park and Recreation Center", "COURT_NUMBER": 7, "COMMENTS": null, "DATA_SOURCE": "Pictometry 2020" }, "geometry": { "type": "Point", "coordinates": [ -75.163855286298798, 40.052753845542703 ] } },
{ "type": "Feature", "properties": { "OBJECTID": 80, "PARK_NAME": "Awbury Park and Recreation Center", "COURT_NUMBER": 9, "COMMENTS": null, "DATA_SOURCE": "Pictometry 2020" }, "geometry": { "type": "Point", "coordinates": [ -75.163663301485101, 40.052948105147699 ] } },
{ "type": "Feature", "properties": { "OBJECTID": 81, "PARK_NAME": "Awbury Park and Recreation Center", "COURT_NUMBER": 10, "COMMENTS": null, "DATA_SOURCE": "Pictometry 2020" }, "geometry": { "type": "Point", "coordinates": [ -75.163562892096095, 40.053043109019598 ] } },
{ "type": "Feature", "properties": { "OBJECTID": 82, "PARK_NAME": "Awbury Park and Recreation Center", "COURT_NUMBER": 11, "COMMENTS": null, "DATA_SOURCE": "Pictometry 2020" }, "geometry": { "type": "Point", "coordinates": [ -75.163410782609404, 40.053192256612398 ] } },
{ "type": "Feature", "properties": { "OBJECTID": 83, "PARK_NAME": "Awbury Park and Recreation Center", "COURT_NUMBER": 12, "COMMENTS": null, "DATA_SOURCE": "Pictometry 2020" }, "geometry": { "type": "Point", "coordinates": [ -75.163305340999102, 40.053289054421299 ] } },
{ "type": "Feature", "properties": { "OBJECTID": 84, "PARK_NAME": "Awbury Park and Recreation Center", "COURT_NUMBER": 6, "COMMENTS": null, "DATA_SOURCE": "Pictometry 2020" }, "geometry": { "type": "Point", "coordinates": [ -75.164028769760705, 40.052605417285598 ] } },
{ "type": "Feature", "properties": { "OBJECTID": 85, "PARK_NAME": "Awbury Park and Recreation Center", "COURT_NUMBER": 5, "COMMENTS": null, "DATA_SOURCE": "Pictometry 2020" }, "geometry": { "type": "Point", "coordinates": [ -75.164128321520096, 40.052508486285198 ] } },
{ "type": "Feature", "properties": { "OBJECTID": 86, "PARK_NAME": "Awbury Park and Recreation Center", "COURT_NUMBER": 4, "COMMENTS": null, "DATA_SOURCE": "Pictometry 2020" }, "geometry": { "type": "Point", "coordinates": [ -75.164231454415898, 40.052407106415203 ] } },
{ "type": "Feature", "properties": { "OBJECTID": 87, "PARK_NAME": "Awbury Park and Recreation Center", "COURT_NUMBER": 3, "COMMENTS": null, "DATA_SOURCE": "Pictometry 2020" }, "geometry": { "type": "Point", "coordinates": [ -75.164787066700498, 40.053351013592497 ] } },
{ "type": "Feature", "properties": { "OBJECTID": 88, "PARK_NAME": "Awbury Park and Recreation Center", "COURT_NUMBER": 2, "COMMENTS": null, "DATA_SOURCE": "Pictometry 2020" }, "geometry": { "type": "Point", "coordinates": [ -75.164922075069796, 40.0532272258815 ] } },
{ "type": "Feature", "properties": { "OBJECTID": 89, "PARK_NAME": "Awbury Park and Recreation Center", "COURT_NUMBER": 1, "COMMENTS": null, "DATA_SOURCE": "Pictometry 2020" }, "geometry": { "type": "Point", "coordinates": [ -75.165049717859205, 40.053101365752298 ] } },
{ "type": "Feature", "properties": { "OBJECTID": 90, "PARK_NAME": "CCA Baldi School Playground", "COURT_NUMBER": 2, "COMMENTS": null, "DATA_SOURCE": "NATUREPHL and Pictometry 2020" }, "geometry": { "type": "Point", "coordinates": [ -75.051098543117206, 40.0916742067241 ] } },
{ "type": "Feature", "properties": { "OBJECTID": 91, "PARK_NAME": "John L Barrett Playground", "COURT_NUMBER": 3, "COMMENTS": null, "DATA_SOURCE": "NATUREPHL, Pictometry 2020" }, "geometry": { "type": "Point", "coordinates": [ -75.136083501117696, 40.029634752200799 ] } },
{ "type": "Feature", "properties": { "OBJECTID": 92, "PARK_NAME": "John L Barrett Playground", "COURT_NUMBER": 1, "COMMENTS": null, "DATA_SOURCE": "NATUREPHL, Pictometry 2020" }, "geometry": { "type": "Point", "coordinates": [ -75.135741007926597, 40.029589765801198 ] } },
{ "type": "Feature", "properties": { "OBJECTID": 93, "PARK_NAME": "Commodore John Barry Playground", "COURT_NUMBER": 2, "COMMENTS": null, "DATA_SOURCE": "NATUREPHL, Pictometry 2020" }, "geometry": { "type": "Point", "coordinates": [ -75.178471681358104, 39.9160896178917 ] } },
{ "type": "Feature", "properties": { "OBJECTID": 94, "PARK_NAME": "Commodore John Barry Playground", "COURT_NUMBER": 6, "COMMENTS": null, "DATA_SOURCE": "NATUREPHL, Pictometry 2020" }, "geometry": { "type": "Point", "coordinates": [ -75.178649936388894, 39.9162387977292 ] } },
{ "type": "Feature", "properties": { "OBJECTID": 95, "PARK_NAME": "Commodore John Barry Playground", "COURT_NUMBER": 5, "COMMENTS": null, "DATA_SOURCE": "NATUREPHL, Pictometry 2020" }, "geometry": { "type": "Point", "coordinates": [ -75.178675775740302, 39.916144972730898 ] } },
{ "type": "Feature", "properties": { "OBJECTID": 96, "PARK_NAME": "Daniel Boyle Memorial Recreation Center", "COURT_NUMBER": 1, "COMMENTS": null, "DATA_SOURCE": "Pictometry 2020" }, "geometry": { "type": "Point", "coordinates": [ -75.007094060839606, 40.122450121196003 ] } },
{ "type": "Feature", "properties": { "OBJECTID": 97, "PARK_NAME": "Bridesburg Recreation Center", "COURT_NUMBER": 1, "COMMENTS": null, "DATA_SOURCE": "Pictometry 2020" }, "geometry": { "type": "Point", "coordinates": [ -75.068605681265893, 39.999471181238597 ] } },
{ "type": "Feature", "properties": { "OBJECTID": 98, "PARK_NAME": "Chamounix Tennis Courts", "COURT_NUMBER": 5, "COMMENTS": null, "DATA_SOURCE": "Pictometry 2020" }, "geometry": { "type": "Point", "coordinates": [ -75.201134599395004, 39.999553034986498 ] } },
{ "type": "Feature", "properties": { "OBJECTID": 99, "PARK_NAME": "Chamounix Tennis Courts", "COURT_NUMBER": 4, "COMMENTS": null, "DATA_SOURCE": "Pictometry 2020" }, "geometry": { "type": "Point", "coordinates": [ -75.2008574587325, 39.9998014833212 ] } },
{ "type": "Feature", "properties": { "OBJECTID": 100, "PARK_NAME": "Chamounix Tennis Courts", "COURT_NUMBER": 3, "COMMENTS": null, "DATA_SOURCE": "Pictometry 2020" }, "geometry": { "type": "Point", "coordinates": [ -75.200602508061493, 40.000053284515701 ] } },
{ "type": "Feature", "properties": { "OBJECTID": 101, "PARK_NAME": "Chamounix Tennis Courts", "COURT_NUMBER": 2, "COMMENTS": null, "DATA_SOURCE": "Pictometry 2020" }, "geometry": { "type": "Point", "coordinates": [ -75.200359550153095, 40.000315840135499 ] } },
{ "type": "Feature", "properties": { "OBJECTID": 102, "PARK_NAME": "Chamounix Tennis Courts", "COURT_NUMBER": 1, "COMMENTS": null, "DATA_SOURCE": "Pictometry 2020" }, "geometry": { "type": "Point", "coordinates": [ -75.200112730636206, 40.000582124358701 ] } },
{ "type": "Feature", "properties": { "OBJECTID": 103, "PARK_NAME": "Chamounix Tennis Courts", "COURT_NUMBER": 7, "COMMENTS": null, "DATA_SOURCE": "Pictometry 2020" }, "geometry": { "type": "Point", "coordinates": [ -75.2018256603738, 39.999012449346097 ] } },
{ "type": "Feature", "properties": { "OBJECTID": 104, "PARK_NAME": "Chamounix Tennis Courts", "COURT_NUMBER": 8, "COMMENTS": null, "DATA_SOURCE": "Pictometry 2020" }, "geometry": { "type": "Point", "coordinates": [ -75.2021374336381, 39.998799096642898 ] } },
{ "type": "Feature", "properties": { "OBJECTID": 105, "PARK_NAME": "Chamounix Tennis Courts", "COURT_NUMBER": 9, "COMMENTS": null, "DATA_SOURCE": "Pictometry 2020" }, "geometry": { "type": "Point", "coordinates": [ -75.2024676443625, 39.998589966253597 ] } },
{ "type": "Feature", "properties": { "OBJECTID": 106, "PARK_NAME": "Chamounix Tennis Courts", "COURT_NUMBER": 10, "COMMENTS": null, "DATA_SOURCE": "Pictometry 2020" }, "geometry": { "type": "Point", "coordinates": [ -75.202800854675303, 39.998399973062298 ] } },
{ "type": "Feature", "properties": { "OBJECTID": 107, "PARK_NAME": "Chamounix Tennis Courts", "COURT_NUMBER": 11, "COMMENTS": null, "DATA_SOURCE": "Pictometry 2020" }, "geometry": { "type": "Point", "coordinates": [ -75.203148821749593, 39.998213167030798 ] } },
{ "type": "Feature", "properties": { "OBJECTID": 108, "PARK_NAME": "Chamounix Tennis Courts", "COURT_NUMBER": 12, "COMMENTS": null, "DATA_SOURCE": "Pictometry 2020" }, "geometry": { "type": "Point", "coordinates": [ -75.203507293088407, 39.998043757122701 ] } },
{ "type": "Feature", "properties": { "OBJECTID": 109, "PARK_NAME": "A Albert Cherashore Playground", "COURT_NUMBER": 1, "COMMENTS": null, "DATA_SOURCE": "NATUREPHL, Pictometry 2020" }, "geometry": { "type": "Point", "coordinates": [ -75.137074914942403, 40.037878920173597 ] } },
{ "type": "Feature", "properties": { "OBJECTID": 110, "PARK_NAME": "Albert W Christy Sr Recreation Center", "COURT_NUMBER": 1, "COMMENTS": null, "DATA_SOURCE": "Pictometry 2020" }, "geometry": { "type": "Point", "coordinates": [ -75.235081645626195, 39.948905434692499 ] } },
{ "type": "Feature", "properties": { "OBJECTID": 111, "PARK_NAME": "Disston Park", "COURT_NUMBER": 3, "COMMENTS": null, "DATA_SOURCE": "NATUREPHL and NearMap2021" }, "geometry": { "type": "Point", "coordinates": [ -75.048544895359598, 40.018766582825798 ] } },
{ "type": "Feature", "properties": { "OBJECTID": 112, "PARK_NAME": "Disston Park", "COURT_NUMBER": 1, "COMMENTS": null, "DATA_SOURCE": "NATUREPHL and NearMap2021" }, "geometry": { "type": "Point", "coordinates": [ -75.048847694630595, 40.018871452213702 ] } },
{ "type": "Feature", "properties": { "OBJECTID": 113, "PARK_NAME": "East Poplar Playground", "COURT_NUMBER": 1, "COMMENTS": "Renovated 2021", "DATA_SOURCE": "NearMap2021" }, "geometry": { "type": "Point", "coordinates": [ -75.150934186184998, 39.967346234463797 ] } },
{ "type": "Feature", "properties": { "OBJECTID": 114, "PARK_NAME": "Eastwick Regional Playground", "COURT_NUMBER": 2, "COMMENTS": "Renovated in 2021 (share pickleball)", "DATA_SOURCE": "NearMap 2021; Capital Drawings 2021" }, "geometry": { "type": "Point", "coordinates": [ -75.250463363155703, 39.904895768321097 ] } },
{ "type": "Feature", "properties": { "OBJECTID": 115, "PARK_NAME": "Eastwick Regional Playground", "COURT_NUMBER": 4, "COMMENTS": null, "DATA_SOURCE": "NATUREPHL, Pictometry 2020" }, "geometry": { "type": "Point", "coordinates": [ -75.250672803364296, 39.904671481991002 ] } },
{ "type": "Feature", "properties": { "OBJECTID": 116, "PARK_NAME": "Eastwick Regional Playground", "COURT_NUMBER": 5, "COMMENTS": null, "DATA_SOURCE": "NATUREPHL, Pictometry 2020" }, "geometry": { "type": "Point", "coordinates": [ -75.250776721201404, 39.904539058353301 ] } },
{ "type": "Feature", "properties": { "OBJECTID": 117, "PARK_NAME": "Fernhill Park", "COURT_NUMBER": 1, "COMMENTS": null, "DATA_SOURCE": "NATUREPHL, Pictometry 2020" }, "geometry": { "type": "Point", "coordinates": [ -75.168552417797599, 40.020735025598498 ] } },
{ "type": "Feature", "properties": { "OBJECTID": 118, "PARK_NAME": "Fernhill Park", "COURT_NUMBER": 3, "COMMENTS": null, "DATA_SOURCE": "NATUREPHL, Pictometry 2020" }, "geometry": { "type": "Point", "coordinates": [ -75.168816855772107, 40.020589589896197 ] } },
{ "type": "Feature", "properties": { "OBJECTID": 119, "PARK_NAME": "Charles M Finley Playground", "COURT_NUMBER": 1, "COMMENTS": null, "DATA_SOURCE": "NATUREPHL, Pictometry 2020" }, "geometry": { "type": "Point", "coordinates": [ -75.169937514351105, 40.0640243715617 ] } },
{ "type": "Feature", "properties": { "OBJECTID": 120, "PARK_NAME": "Charles M Finley Playground", "COURT_NUMBER": 3, "COMMENTS": null, "DATA_SOURCE": "NATUREPHL, Pictometry 2020" }, "geometry": { "type": "Point", "coordinates": [ -75.169661026628205, 40.064237484301898 ] } },
{ "type": "Feature", "properties": { "OBJECTID": 121, "PARK_NAME": "Charles M Finley Playground", "COURT_NUMBER": 4, "COMMENTS": null, "DATA_SOURCE": "NATUREPHL, Pictometry 2020" }, "geometry": { "type": "Point", "coordinates": [ -75.1695379147789, 40.064333652377996 ] } },
{ "type": "Feature", "properties": { "OBJECTID": 122, "PARK_NAME": "Fisher Park", "COURT_NUMBER": 1, "COMMENTS": null, "DATA_SOURCE": "Pictometry 2020" }, "geometry": { "type": "Point", "coordinates": [ -75.131459129733003, 40.043785321364503 ] } },
{ "type": "Feature", "properties": { "OBJECTID": 123, "PARK_NAME": "Fisher Park", "COURT_NUMBER": 3, "COMMENTS": null, "DATA_SOURCE": "Pictometry 2020" }, "geometry": { "type": "Point", "coordinates": [ -75.131136609830705, 40.043743401013103 ] } },
{ "type": "Feature", "properties": { "OBJECTID": 124, "PARK_NAME": "Fox Chase Recreation Center", "COURT_NUMBER": 1, "COMMENTS": "Fox Chase School Playground", "DATA_SOURCE": "NATUREPHL and Pictometry 2020" }, "geometry": { "type": "Point", "coordinates": [ -75.081602968336, 40.074393679519297 ] } },
{ "type": "Feature", "properties": { "OBJECTID": 125, "PARK_NAME": "Fox Chase Recreation Center", "COURT_NUMBER": 3, "COMMENTS": "Fox Chase School Playground", "DATA_SOURCE": "NATUREPHL and Pictometry 2020" }, "geometry": { "type": "Point", "coordinates": [ -75.081322131991897, 40.074235774108701 ] } },
{ "type": "Feature", "properties": { "OBJECTID": 126, "PARK_NAME": "Franklin Delano Roosevelt Park", "COURT_NUMBER": 14, "COMMENTS": "Pickleball Court", "DATA_SOURCE": "Pictometry 2020; FDR Park Manager 05/2021" }, "geometry": { "type": "Point", "coordinates": [ -75.185298148932603, 39.8984105378726 ] } },
{ "type": "Feature", "properties": { "OBJECTID": 127, "PARK_NAME": "Franklin Delano Roosevelt Park", "COURT_NUMBER": 15, "COMMENTS": null, "DATA_SOURCE": "Pictometry 2020" }, "geometry": { "type": "Point", "coordinates": [ -75.185452664652303, 39.898375851649199 ] } },
{ "type": "Feature", "properties": { "OBJECTID": 128, "PARK_NAME": "Franklin Delano Roosevelt Park", "COURT_NUMBER": 12, "COMMENTS": null, "DATA_SOURCE": "Pictometry 2020" }, "geometry": { "type": "Point", "coordinates": [ -75.184986159148394, 39.8984762664914 ] } },
{ "type": "Feature", "properties": { "OBJECTID": 129, "PARK_NAME": "Franklin Delano Roosevelt Park", "COURT_NUMBER": 11, "COMMENTS": null, "DATA_SOURCE": "Pictometry 2020" }, "geometry": { "type": "Point", "coordinates": [ -75.184827228579294, 39.898504893109802 ] } },
{ "type": "Feature", "properties": { "OBJECTID": 130, "PARK_NAME": "Franklin Delano Roosevelt Park", "COURT_NUMBER": 4, "COMMENTS": null, "DATA_SOURCE": "NATUREPHL, Pictometry 2020" }, "geometry": { "type": "Point", "coordinates": [ -75.176073390126803, 39.904402800150798 ] } },
{ "type": "Feature", "properties": { "OBJECTID": 131, "PARK_NAME": "Franklin Delano Roosevelt Park", "COURT_NUMBER": 3, "COMMENTS": null, "DATA_SOURCE": "NATUREPHL, Pictometry 2020" }, "geometry": { "type": "Point", "coordinates": [ -75.175903933441106, 39.904422834160201 ] } },
{ "type": "Feature", "properties": { "OBJECTID": 132, "PARK_NAME": "Franklin Delano Roosevelt Park", "COURT_NUMBER": 2, "COMMENTS": null, "DATA_SOURCE": "NATUREPHL, Pictometry 2020" }, "geometry": { "type": "Point", "coordinates": [ -75.175734520544793, 39.9044416777649 ] } },
{ "type": "Feature", "properties": { "OBJECTID": 133, "PARK_NAME": "Franklin Delano Roosevelt Park", "COURT_NUMBER": 1, "COMMENTS": null, "DATA_SOURCE": "NATUREPHL, Pictometry 2020" }, "geometry": { "type": "Point", "coordinates": [ -75.175565063662404, 39.904461711273498 ] } },
{ "type": "Feature", "properties": { "OBJECTID": 134, "PARK_NAME": "Franklin Delano Roosevelt Park", "COURT_NUMBER": 10, "COMMENTS": null, "DATA_SOURCE": "NATUREPHL, Pictometry 2020" }, "geometry": { "type": "Point", "coordinates": [ -75.175841879902407, 39.904099609515796 ] } },
{ "type": "Feature", "properties": { "OBJECTID": 135, "PARK_NAME": "Franklin Delano Roosevelt Park", "COURT_NUMBER": 9, "COMMENTS": null, "DATA_SOURCE": "NATUREPHL, Pictometry 2020" }, "geometry": { "type": "Point", "coordinates": [ -75.175672559149305, 39.904116070998398 ] } },
{ "type": "Feature", "properties": { "OBJECTID": 136, "PARK_NAME": "Franklin Delano Roosevelt Park", "COURT_NUMBER": 8, "COMMENTS": null, "DATA_SOURCE": "NATUREPHL, Pictometry 2020" }, "geometry": { "type": "Point", "coordinates": [ -75.1755061948232, 39.904136173851903 ] } },
{ "type": "Feature", "properties": { "OBJECTID": 137, "PARK_NAME": "Franklin Delano Roosevelt Park", "COURT_NUMBER": 7, "COMMENTS": null, "DATA_SOURCE": "NATUREPHL, Pictometry 2020" }, "geometry": { "type": "Point", "coordinates": [ -75.175335327431299, 39.904152600105199 ] } },
{ "type": "Feature", "properties": { "OBJECTID": 138, "PARK_NAME": "Franklin Delano Roosevelt Park", "COURT_NUMBER": 6, "COMMENTS": null, "DATA_SOURCE": "NATUREPHL, Pictometry 2020" }, "geometry": { "type": "Point", "coordinates": [ -75.175165826049593, 39.904173824052101 ] } },
{ "type": "Feature", "properties": { "OBJECTID": 139, "PARK_NAME": "Garden Court", "COURT_NUMBER": 2, "COMMENTS": null, "DATA_SOURCE": "NATUREPHL, Pictometry 2020" }, "geometry": { "type": "Point", "coordinates": [ -75.216402441332704, 39.953128503292398 ] } },
{ "type": "Feature", "properties": { "OBJECTID": 140, "PARK_NAME": "Garland and Bingham Fields", "COURT_NUMBER": 0, "COMMENTS": null, "DATA_SOURCE": "Pictometry 2020" }, "geometry": { "type": "Point", "coordinates": [ -75.110183669773605, 40.0337722400442 ] } },
{ "type": "Feature", "properties": { "OBJECTID": 141, "PARK_NAME": "Tomlinson and Gifford Playground", "COURT_NUMBER": 2, "COMMENTS": null, "DATA_SOURCE": "NATUREPHL and Pictometry 2020" }, "geometry": { "type": "Point", "coordinates": [ -75.024131186342601, 40.115435204456702 ] } },
{ "type": "Feature", "properties": { "OBJECTID": 142, "PARK_NAME": "Gustine Recreation Center", "COURT_NUMBER": 0, "COMMENTS": null, "DATA_SOURCE": "Pictometry 2020" }, "geometry": { "type": "Point", "coordinates": [ -75.2034820493095, 40.012669179251098 ] } },
{ "type": "Feature", "properties": { "OBJECTID": 143, "PARK_NAME": "Gustine Recreation Center", "COURT_NUMBER": 0, "COMMENTS": null, "DATA_SOURCE": "Pictometry 2020" }, "geometry": { "type": "Point", "coordinates": [ -75.203362652538104, 40.0125461435969 ] } },
{ "type": "Feature", "properties": { "OBJECTID": 144, "PARK_NAME": "Gustine Recreation Center", "COURT_NUMBER": 0, "COMMENTS": null, "DATA_SOURCE": "Pictometry 2020" }, "geometry": { "type": "Point", "coordinates": [ -75.203189374343097, 40.012495813829801 ] } },
{ "type": "Feature", "properties": { "OBJECTID": 145, "PARK_NAME": "Gustine Recreation Center", "COURT_NUMBER": 0, "COMMENTS": null, "DATA_SOURCE": "Pictometry 2020" }, "geometry": { "type": "Point", "coordinates": [ -75.202986892155494, 40.012438876727998 ] } },
{ "type": "Feature", "properties": { "OBJECTID": 146, "PARK_NAME": "Gustine Recreation Center", "COURT_NUMBER": 0, "COMMENTS": null, "DATA_SOURCE": "Pictometry 2020" }, "geometry": { "type": "Point", "coordinates": [ -75.202813525134701, 40.0123909284654 ] } },
{ "type": "Feature", "properties": { "OBJECTID": 147, "PARK_NAME": "Gustine Recreation Center", "COURT_NUMBER": 0, "COMMENTS": null, "DATA_SOURCE": "Pictometry 2020" }, "geometry": { "type": "Point", "coordinates": [ -75.202455816311996, 40.012298363714798 ] } },
{ "type": "Feature", "properties": { "OBJECTID": 148, "PARK_NAME": "Gustine Recreation Center", "COURT_NUMBER": 0, "COMMENTS": null, "DATA_SOURCE": "Pictometry 2020" }, "geometry": { "type": "Point", "coordinates": [ -75.202953132463193, 40.012057894581503 ] } },
{ "type": "Feature", "properties": { "OBJECTID": 149, "PARK_NAME": "Gustine Recreation Center", "COURT_NUMBER": 0, "COMMENTS": null, "DATA_SOURCE": "Pictometry 2020" }, "geometry": { "type": "Point", "coordinates": [ -75.202783043069502, 40.012005250850599 ] } },
{ "type": "Feature", "properties": { "OBJECTID": 150, "PARK_NAME": "Gustine Recreation Center", "COURT_NUMBER": 0, "COMMENTS": null, "DATA_SOURCE": "Pictometry 2020" }, "geometry": { "type": "Point", "coordinates": [ -75.202609677299805, 40.011957302279498 ] } },
{ "type": "Feature", "properties": { "OBJECTID": 151, "PARK_NAME": "Happy Hollow Recreation Center", "COURT_NUMBER": 1, "COMMENTS": null, "DATA_SOURCE": "NATUREPHL, NearMap2021" }, "geometry": { "type": "Point", "coordinates": [ -75.166361652193899, 40.023323187932903 ] } },
{ "type": "Feature", "properties": { "OBJECTID": 152, "PARK_NAME": "Officer Robert Hayes Memorial Playground", "COURT_NUMBER": 3, "COMMENTS": null, "DATA_SOURCE": "NATUREPHL and NearMap2021" }, "geometry": { "type": "Point", "coordinates": [ -75.021694789959497, 40.091435174346799 ] } },
{ "type": "Feature", "properties": { "OBJECTID": 153, "PARK_NAME": "Samuel F Houston Playground", "COURT_NUMBER": 1, "COMMENTS": null, "DATA_SOURCE": "Pictometry 2020" }, "geometry": { "type": "Point", "coordinates": [ -75.231951767210901, 40.069839788574903 ] } },
{ "type": "Feature", "properties": { "OBJECTID": 154, "PARK_NAME": "Hunting Park", "COURT_NUMBER": 2, "COMMENTS": null, "DATA_SOURCE": "NATUREPHL, Pictometry 2020" }, "geometry": { "type": "Point", "coordinates": [ -75.1417218608685, 40.015154065038701 ] } },
{ "type": "Feature", "properties": { "OBJECTID": 155, "PARK_NAME": "Hunting Park", "COURT_NUMBER": 3, "COMMENTS": null, "DATA_SOURCE": "NATUREPHL, Pictometry 2020" }, "geometry": { "type": "Point", "coordinates": [ -75.141956870312896, 40.014847582382401 ] } },
{ "type": "Feature", "properties": { "OBJECTID": 156, "PARK_NAME": "Hunting Park", "COURT_NUMBER": 4, "COMMENTS": null, "DATA_SOURCE": "NATUREPHL, Pictometry 2020" }, "geometry": { "type": "Point", "coordinates": [ -75.141790085107104, 40.014830920078097 ] } },
{ "type": "Feature", "properties": { "OBJECTID": 157, "PARK_NAME": "Hunting Park", "COURT_NUMBER": 5, "COMMENTS": null, "DATA_SOURCE": "NATUREPHL, Pictometry 2020" }, "geometry": { "type": "Point", "coordinates": [ -75.142028919074704, 40.014521662536097 ] } },
{ "type": "Feature", "properties": { "OBJECTID": 158, "PARK_NAME": "Hunting Park", "COURT_NUMBER": 6, "COMMENTS": null, "DATA_SOURCE": "NATUREPHL, Pictometry 2020" }, "geometry": { "type": "Point", "coordinates": [ -75.141854756162203, 40.014503402811897 ] } },
{ "type": "Feature", "properties": { "OBJECTID": 159, "PARK_NAME": "J Francis Finnegan Playground", "COURT_NUMBER": 2, "COMMENTS": null, "DATA_SOURCE": "NATUREPHL, Pictometry 2020" }, "geometry": { "type": "Point", "coordinates": [ -75.232140900296898, 39.914083091028203 ] } },
{ "type": "Feature", "properties": { "OBJECTID": 160, "PARK_NAME": "J Francis Finnegan Playground", "COURT_NUMBER": 4, "COMMENTS": null, "DATA_SOURCE": "NATUREPHL, Pictometry 2020" }, "geometry": { "type": "Point", "coordinates": [ -75.231893063108402, 39.914255010180902 ] } },
{ "type": "Feature", "properties": { "OBJECTID": 161, "PARK_NAME": "J Francis Finnegan Playground", "COURT_NUMBER": 5, "COMMENTS": null, "DATA_SOURCE": "NATUREPHL, Pictometry 2020" }, "geometry": { "type": "Point", "coordinates": [ -75.231771158845206, 39.914336721910303 ] } },
{ "type": "Feature", "properties": { "OBJECTID": 162, "PARK_NAME": "J Francis Finnegan Playground", "COURT_NUMBER": 1, "COMMENTS": null, "DATA_SOURCE": "NATUREPHL, Pictometry 2020" }, "geometry": { "type": "Point", "coordinates": [ -75.232260612134198, 39.913993702039498 ] } },
{ "type": "Feature", "properties": { "OBJECTID": 163, "PARK_NAME": "Thomas E Jardel Memorial Field", "COURT_NUMBER": 1, "COMMENTS": null, "DATA_SOURCE": "Pictometry 2020" }, "geometry": { "type": "Point", "coordinates": [ -75.077036871707307, 40.056555388179497 ] } },
{ "type": "Feature", "properties": { "OBJECTID": 164, "PARK_NAME": "Thomas E Jardel Memorial Field", "COURT_NUMBER": 3, "COMMENTS": null, "DATA_SOURCE": "Pictometry 2020" }, "geometry": { "type": "Point", "coordinates": [ -75.076845737642799, 40.056760733759901 ] } },
{ "type": "Feature", "properties": { "OBJECTID": 165, "PARK_NAME": "Thomas E Jardel Memorial Field", "COURT_NUMBER": 4, "COMMENTS": null, "DATA_SOURCE": "Pictometry 2020" }, "geometry": { "type": "Point", "coordinates": [ -75.076751720071798, 40.056863442492997 ] } },
{ "type": "Feature", "properties": { "OBJECTID": 166, "PARK_NAME": "Jim Junod Recreation Center", "COURT_NUMBER": 2, "COMMENTS": null, "DATA_SOURCE": "Pictometry 2020" }, "geometry": { "type": "Point", "coordinates": [ -74.969629368360202, 40.103547052366501 ] } },
{ "type": "Feature", "properties": { "OBJECTID": 167, "PARK_NAME": "Jim Junod Recreation Center", "COURT_NUMBER": 3, "COMMENTS": null, "DATA_SOURCE": "Pictometry 2020" }, "geometry": { "type": "Point", "coordinates": [ -74.969728071926198, 40.103199455504303 ] } },
{ "type": "Feature", "properties": { "OBJECTID": 168, "PARK_NAME": "Jim Junod Recreation Center", "COURT_NUMBER": 4, "COMMENTS": null, "DATA_SOURCE": "Pictometry 2020" }, "geometry": { "type": "Point", "coordinates": [ -74.969565967581104, 40.103215561429899 ] } },
{ "type": "Feature", "properties": { "OBJECTID": 169, "PARK_NAME": "Kingsessing Recreation Center", "COURT_NUMBER": 2, "COMMENTS": null, "DATA_SOURCE": "NATUREPHL, Pictometry 2020" }, "geometry": { "type": "Point", "coordinates": [ -75.218481070817205, 39.9423795722413 ] } },
{ "type": "Feature", "properties": { "OBJECTID": 170, "PARK_NAME": "William A Lackman Memorial Playground", "COURT_NUMBER": 2, "COMMENTS": null, "DATA_SOURCE": "NATUREPHL and Pictometry 2020" }, "geometry": { "type": "Point", "coordinates": [ -75.033278673145702, 40.100094249706402 ] } },
{ "type": "Feature", "properties": { "OBJECTID": 171, "PARK_NAME": "Lawncrest Recreation Center", "COURT_NUMBER": 1, "COMMENTS": null, "DATA_SOURCE": "NATUREPHL and Pictometry 2020" }, "geometry": { "type": "Point", "coordinates": [ -75.100962182945395, 40.046391685921797 ] } },
{ "type": "Feature", "properties": { "OBJECTID": 172, "PARK_NAME": "John A Lee Cultural Center", "COURT_NUMBER": 0, "COMMENTS": null, "DATA_SOURCE": "NATUREPHL, Pictometry 2020" }, "geometry": { "type": "Point", "coordinates": [ -75.210574940342596, 39.960923186553302 ] } },
{ "type": "Feature", "properties": { "OBJECTID": 173, "PARK_NAME": "Joseph E Mander Playground", "COURT_NUMBER": 9, "COMMENTS": null, "DATA_SOURCE": "NATUREPHL, Pictometry 2020" }, "geometry": { "type": "Point", "coordinates": [ -75.188198666602304, 39.990876638808402 ] } },
{ "type": "Feature", "properties": { "OBJECTID": 174, "PARK_NAME": "Joseph E Mander Playground", "COURT_NUMBER": 5, "COMMENTS": null, "DATA_SOURCE": "NATUREPHL, Pictometry 2020" }, "geometry": { "type": "Point", "coordinates": [ -75.187988003935999, 39.991202824895502 ] } },
{ "type": "Feature", "properties": { "OBJECTID": 175, "PARK_NAME": "Joseph E Mander Playground", "COURT_NUMBER": 4, "COMMENTS": null, "DATA_SOURCE": "NATUREPHL, Pictometry 2020" }, "geometry": { "type": "Point", "coordinates": [ -75.187868449448203, 39.991085728217797 ] } },
{ "type": "Feature", "properties": { "OBJECTID": 176, "PARK_NAME": "Joseph E Mander Playground", "COURT_NUMBER": 3, "COMMENTS": null, "DATA_SOURCE": "NATUREPHL, Pictometry 2020" }, "geometry": { "type": "Point", "coordinates": [ -75.187745142220294, 39.990969500900199 ] } },
{ "type": "Feature", "properties": { "OBJECTID": 177, "PARK_NAME": "Joseph E Mander Playground", "COURT_NUMBER": 8, "COMMENTS": null, "DATA_SOURCE": "NATUREPHL, Pictometry 2020" }, "geometry": { "type": "Point", "coordinates": [ -75.188075252526602, 39.990763270165203 ] } },
{ "type": "Feature", "properties": { "OBJECTID": 178, "PARK_NAME": "Joseph E Mander Playground", "COURT_NUMBER": 2, "COMMENTS": null, "DATA_SOURCE": "NATUREPHL, Pictometry 2020" }, "geometry": { "type": "Point", "coordinates": [ -75.187624277223605, 39.990854281228003 ] } },
{ "type": "Feature", "properties": { "OBJECTID": 179, "PARK_NAME": "Joseph E Mander Playground", "COURT_NUMBER": 7, "COMMENTS": null, "DATA_SOURCE": "NATUREPHL, Pictometry 2020" }, "geometry": { "type": "Point", "coordinates": [ -75.187956899842405, 39.990647153655303 ] } },
{ "type": "Feature", "properties": { "OBJECTID": 180, "PARK_NAME": "Joseph E Mander Playground", "COURT_NUMBER": 1, "COMMENTS": null, "DATA_SOURCE": "NATUREPHL, Pictometry 2020" }, "geometry": { "type": "Point", "coordinates": [ -75.187500972004102, 39.990738053673397 ] } },
{ "type": "Feature", "properties": { "OBJECTID": 181, "PARK_NAME": "Joseph E Mander Playground", "COURT_NUMBER": 6, "COMMENTS": null, "DATA_SOURCE": "NATUREPHL, Pictometry 2020" }, "geometry": { "type": "Point", "coordinates": [ -75.1878385847033, 39.990530083684199 ] } },
{ "type": "Feature", "properties": { "OBJECTID": 182, "PARK_NAME": "William H (Billy) Markward Memorial Playground", "COURT_NUMBER": 2, "COMMENTS": null, "DATA_SOURCE": "NATUREPHL, Pictometry 2020" }, "geometry": { "type": "Point", "coordinates": [ -75.182834003634298, 39.947929905484798 ] } },
{ "type": "Feature", "properties": { "OBJECTID": 183, "PARK_NAME": "Max Myers Playground", "COURT_NUMBER": 3, "COMMENTS": null, "DATA_SOURCE": "NATUREPHL and Pictometry 2020" }, "geometry": { "type": "Point", "coordinates": [ -75.071420615819704, 40.039006942949101 ] } },
{ "type": "Feature", "properties": { "OBJECTID": 184, "PARK_NAME": "Max Myers Playground", "COURT_NUMBER": 2, "COMMENTS": null, "DATA_SOURCE": "NATUREPHL and Pictometry 2020" }, "geometry": { "type": "Point", "coordinates": [ -75.071274977464498, 40.038924873821898 ] } },
{ "type": "Feature", "properties": { "OBJECTID": 185, "PARK_NAME": "Max Myers Playground", "COURT_NUMBER": 1, "COMMENTS": null, "DATA_SOURCE": "NATUREPHL and Pictometry 2020" }, "geometry": { "type": "Point", "coordinates": [ -75.071126287517203, 40.038841541250399 ] } },
{ "type": "Feature", "properties": { "OBJECTID": 186, "PARK_NAME": "Max Myers Playground", "COURT_NUMBER": 0, "COMMENTS": "Quickstart tennis court", "DATA_SOURCE": "Pictometry 2020" }, "geometry": { "type": "Point", "coordinates": [ -75.071045523418903, 40.038219273951398 ] } },
{ "type": "Feature", "properties": { "OBJECTID": 187, "PARK_NAME": "Max Myers Playground", "COURT_NUMBER": 0, "COMMENTS": "Quickstart tennis court", "DATA_SOURCE": "Pictometry 2020" }, "geometry": { "type": "Point", "coordinates": [ -75.070985845870794, 40.038277482333299 ] } },
{ "type": "Feature", "properties": { "OBJECTID": 188, "PARK_NAME": "Max Myers Playground", "COURT_NUMBER": 0, "COMMENTS": "Quickstart tennis court", "DATA_SOURCE": "Pictometry 2020" }, "geometry": { "type": "Point", "coordinates": [ -75.070930863647206, 40.038334608126704 ] } },
{ "type": "Feature", "properties": { "OBJECTID": 189, "PARK_NAME": "Frank McArdle Memorial Recreation Center", "COURT_NUMBER": 3, "COMMENTS": null, "DATA_SOURCE": "NATUREPHL and NearMap2021" }, "geometry": { "type": "Point", "coordinates": [ -75.027470013863194, 40.060848575427499 ] } },
{ "type": "Feature", "properties": { "OBJECTID": 190, "PARK_NAME": "Frank McArdle Memorial Recreation Center", "COURT_NUMBER": 1, "COMMENTS": null, "DATA_SOURCE": "NATUREPHL and NearMap2021" }, "geometry": { "type": "Point", "coordinates": [ -75.027204427759898, 40.060701623621902 ] } },
{ "type": "Feature", "properties": { "OBJECTID": 191, "PARK_NAME": "Harry S McDevitt Playground", "COURT_NUMBER": 2, "COMMENTS": null, "DATA_SOURCE": "Pictometry 2020" }, "geometry": { "type": "Point", "coordinates": [ -75.187012458131207, 40.008981178958898 ] } },
{ "type": "Feature", "properties": { "OBJECTID": 192, "PARK_NAME": "Thomas Mitchell Playground", "COURT_NUMBER": 1, "COMMENTS": null, "DATA_SOURCE": "NATUREPHL and Pictometry 2020" }, "geometry": { "type": "Point", "coordinates": [ -74.992021177219797, 40.068473108928899 ] } },
{ "type": "Feature", "properties": { "OBJECTID": 193, "PARK_NAME": "Reverend M Monkiewicz Recreation Center", "COURT_NUMBER": 1, "COMMENTS": null, "DATA_SOURCE": "Pictometry 2020" }, "geometry": { "type": "Point", "coordinates": [ -75.100683717469494, 39.982807912679696 ] } },
{ "type": "Feature", "properties": { "OBJECTID": 194, "PARK_NAME": "Olney Recreation Center", "COURT_NUMBER": 2, "COMMENTS": null, "DATA_SOURCE": "NATUREPHL, Pictometry 2020" }, "geometry": { "type": "Point", "coordinates": [ -75.116248057727603, 40.0422586998085 ] } },
{ "type": "Feature", "properties": { "OBJECTID": 195, "PARK_NAME": "Michael Palmer Playground", "COURT_NUMBER": 2, "COMMENTS": null, "DATA_SOURCE": "Pictometry 2020" }, "geometry": { "type": "Point", "coordinates": [ -74.989170207459594, 40.094926169140898 ] } },
{ "type": "Feature", "properties": { "OBJECTID": 196, "PARK_NAME": "Michael Palmer Playground", "COURT_NUMBER": 3, "COMMENTS": null, "DATA_SOURCE": "Pictometry 2020" }, "geometry": { "type": "Point", "coordinates": [ -74.988992609526903, 40.095018458996499 ] } },
{ "type": "Feature", "properties": { "OBJECTID": 197, "PARK_NAME": "Michael Palmer Playground", "COURT_NUMBER": 4, "COMMENTS": null, "DATA_SOURCE": "Pictometry 2020" }, "geometry": { "type": "Point", "coordinates": [ -74.988861530450805, 40.095111865073697 ] } },
{ "type": "Feature", "properties": { "OBJECTID": 198, "PARK_NAME": "Parkside Evans Recreation Center", "COURT_NUMBER": 4, "COMMENTS": null, "DATA_SOURCE": "NATUREPHL, Pictometry 2020" }, "geometry": { "type": "Point", "coordinates": [ -75.226540110337297, 39.983993585303701 ] } },
{ "type": "Feature", "properties": { "OBJECTID": 199, "PARK_NAME": "Parkside Evans Recreation Center", "COURT_NUMBER": 6, "COMMENTS": null, "DATA_SOURCE": "NATUREPHL, Pictometry 2020" }, "geometry": { "type": "Point", "coordinates": [ -75.226205112688803, 39.983951891180297 ] } },
{ "type": "Feature", "properties": { "OBJECTID": 200, "PARK_NAME": "Parkside Evans Recreation Center", "COURT_NUMBER": 1, "COMMENTS": null, "DATA_SOURCE": "NATUREPHL, Pictometry 2020" }, "geometry": { "type": "Point", "coordinates": [ -75.226445141856402, 39.984347650559101 ] } },
{ "type": "Feature", "properties": { "OBJECTID": 201, "PARK_NAME": "Parkside Evans Recreation Center", "COURT_NUMBER": 2, "COMMENTS": null, "DATA_SOURCE": "NATUREPHL, Pictometry 2020" }, "geometry": { "type": "Point", "coordinates": [ -75.226279155561599, 39.984311102645698 ] } },
{ "type": "Feature", "properties": { "OBJECTID": 202, "PARK_NAME": "Parkside Evans Recreation Center", "COURT_NUMBER": 3, "COMMENTS": null, "DATA_SOURCE": "NATUREPHL, Pictometry 2020" }, "geometry": { "type": "Point", "coordinates": [ -75.226111151648098, 39.984278801569403 ] } },
{ "type": "Feature", "properties": { "OBJECTID": 203, "PARK_NAME": "Parkside Evans Recreation Center", "COURT_NUMBER": 7, "COMMENTS": null, "DATA_SOURCE": "NATUREPHL, Pictometry 2020" }, "geometry": { "type": "Point", "coordinates": [ -75.226592666612007, 39.983630004588001 ] } },
{ "type": "Feature", "properties": { "OBJECTID": 204, "PARK_NAME": "Parkside Evans Recreation Center", "COURT_NUMBER": 8, "COMMENTS": null, "DATA_SOURCE": "NATUREPHL, Pictometry 2020" }, "geometry": { "type": "Point", "coordinates": [ -75.226423814570097, 39.983620570616502 ] } },
{ "type": "Feature", "properties": { "OBJECTID": 205, "PARK_NAME": "Parkside Evans Recreation Center", "COURT_NUMBER": 9, "COMMENTS": null, "DATA_SOURCE": "NATUREPHL, Pictometry 2020" }, "geometry": { "type": "Point", "coordinates": [ -75.226251087580593, 39.983615341735401 ] } },
{ "type": "Feature", "properties": { "OBJECTID": 206, "PARK_NAME": "Penrose Memorial Playground", "COURT_NUMBER": 2, "COMMENTS": null, "DATA_SOURCE": "NATUREPHL, Pictometry 2020" }, "geometry": { "type": "Point", "coordinates": [ -75.151354866112797, 39.985907161376502 ] } },
{ "type": "Feature", "properties": { "OBJECTID": 207, "PARK_NAME": "Pepper School Playground", "COURT_NUMBER": 2, "COMMENTS": null, "DATA_SOURCE": "NATUREPHL, Pictometry 2020" }, "geometry": { "type": "Point", "coordinates": [ -75.248931613669299, 39.8964032024858 ] } },
{ "type": "Feature", "properties": { "OBJECTID": 208, "PARK_NAME": "Pepper School Playground", "COURT_NUMBER": 3, "COMMENTS": null, "DATA_SOURCE": "NATUREPHL, Pictometry 2020" }, "geometry": { "type": "Point", "coordinates": [ -75.248838450764893, 39.896512734983602 ] } },
{ "type": "Feature", "properties": { "OBJECTID": 209, "PARK_NAME": "Pepper School Playground", "COURT_NUMBER": 4, "COMMENTS": null, "DATA_SOURCE": "NATUREPHL, Pictometry 2020" }, "geometry": { "type": "Point", "coordinates": [ -75.248741629147702, 39.896620757698599 ] } },
{ "type": "Feature", "properties": { "OBJECTID": 210, "PARK_NAME": "Elizabeth M Picariello Playground", "COURT_NUMBER": 2, "COMMENTS": null, "DATA_SOURCE": "Pictometry 2020" }, "geometry": { "type": "Point", "coordinates": [ -74.988741259570702, 40.080006199160501 ] } },
{ "type": "Feature", "properties": { "OBJECTID": 211, "PARK_NAME": "Boniface Piccoli Playground", "COURT_NUMBER": 1, "COMMENTS": null, "DATA_SOURCE": "Pictometry 2020" }, "geometry": { "type": "Point", "coordinates": [ -75.096087178624103, 40.012912268275002 ] } },
{ "type": "Feature", "properties": { "OBJECTID": 212, "PARK_NAME": "Boniface Piccoli Playground", "COURT_NUMBER": 3, "COMMENTS": null, "DATA_SOURCE": "Pictometry 2020" }, "geometry": { "type": "Point", "coordinates": [ -75.095756059446998, 40.012864562193002 ] } },
{ "type": "Feature", "properties": { "OBJECTID": 213, "PARK_NAME": "Pleasant Playground", "COURT_NUMBER": 2, "COMMENTS": null, "DATA_SOURCE": "Pictometry 2020" }, "geometry": { "type": "Point", "coordinates": [ -75.182872742293796, 40.056992442629003 ] } },
{ "type": "Feature", "properties": { "OBJECTID": 214, "PARK_NAME": "Pleasant Playground", "COURT_NUMBER": 3, "COMMENTS": null, "DATA_SOURCE": "Pictometry 2020" }, "geometry": { "type": "Point", "coordinates": [ -75.182764590012994, 40.057095871877102 ] } },
{ "type": "Feature", "properties": { "OBJECTID": 215, "PARK_NAME": "Pleasant Playground", "COURT_NUMBER": 4, "COMMENTS": null, "DATA_SOURCE": "Pictometry 2020" }, "geometry": { "type": "Point", "coordinates": [ -75.182659832567495, 40.057207958983497 ] } },
{ "type": "Feature", "properties": { "OBJECTID": 216, "PARK_NAME": "Reyburn Park", "COURT_NUMBER": 2, "COMMENTS": null, "DATA_SOURCE": "Pictometry 2020" }, "geometry": { "type": "Point", "coordinates": [ -75.165396696859105, 39.994864361661001 ] } },
{ "type": "Feature", "properties": { "OBJECTID": 217, "PARK_NAME": "Samuel Rose Recreation Center", "COURT_NUMBER": 2, "COMMENTS": null, "DATA_SOURCE": "Pictometry 2020" }, "geometry": { "type": "Point", "coordinates": [ -75.260475423924305, 39.9735243984262 ] } },
{ "type": "Feature", "properties": { "OBJECTID": 218, "PARK_NAME": "Rufus O Williams Memorial Playground", "COURT_NUMBER": 1, "COMMENTS": null, "DATA_SOURCE": "Pictometry 2020" }, "geometry": { "type": "Point", "coordinates": [ -75.250013161234705, 39.950332500818497 ] } },
{ "type": "Feature", "properties": { "OBJECTID": 219, "PARK_NAME": "Rufus O Williams Memorial Playground", "COURT_NUMBER": 2, "COMMENTS": null, "DATA_SOURCE": "Pictometry 2020" }, "geometry": { "type": "Point", "coordinates": [ -75.249839449436095, 39.9503058297541 ] } },
{ "type": "Feature", "properties": { "OBJECTID": 220, "PARK_NAME": "Charles A Russo Playground", "COURT_NUMBER": 3, "COMMENTS": null, "DATA_SOURCE": "Pictometry 2020" }, "geometry": { "type": "Point", "coordinates": [ -75.033919718614996, 40.028956263900596 ] } },
{ "type": "Feature", "properties": { "OBJECTID": 221, "PARK_NAME": "Charles A Russo Playground", "COURT_NUMBER": 1, "COMMENTS": null, "DATA_SOURCE": "Pictometry 2020" }, "geometry": { "type": "Point", "coordinates": [ -75.033642418388098, 40.029097039245102 ] } },
{ "type": "Feature", "properties": { "OBJECTID": 222, "PARK_NAME": "Charles T Mitchell Jr (Seger) Park", "COURT_NUMBER": 2, "COMMENTS": "2 Pickleball Courts; Building is named for Charles Seger (1977); Site is named for Charles T Mitchell Jr (1976).", "DATA_SOURCE": "NearMap 2021; Communications 2022" }, "geometry": { "type": "Point", "coordinates": [ -75.158899246325305, 39.9434916986012 ] } },
{ "type": "Feature", "properties": { "OBJECTID": 223, "PARK_NAME": "William B Simons Recreation Center", "COURT_NUMBER": 2, "COMMENTS": null, "DATA_SOURCE": "NATUREPHL, Pictometry 2020" }, "geometry": { "type": "Point", "coordinates": [ -75.158153185813603, 40.061698758223599 ] } },
{ "type": "Feature", "properties": { "OBJECTID": 224, "PARK_NAME": "William B Simons Recreation Center", "COURT_NUMBER": 3, "COMMENTS": null, "DATA_SOURCE": "NATUREPHL, Pictometry 2020" }, "geometry": { "type": "Point", "coordinates": [ -75.157993191532498, 40.061663681126099 ] } },
{ "type": "Feature", "properties": { "OBJECTID": 225, "PARK_NAME": "William B Simons Recreation Center", "COURT_NUMBER": 4, "COMMENTS": null, "DATA_SOURCE": "NATUREPHL, Pictometry 2020" }, "geometry": { "type": "Point", "coordinates": [ -75.157838594910203, 40.061617282691302 ] } },
{ "type": "Feature", "properties": { "OBJECTID": 226, "PARK_NAME": "William B Simons Recreation Center", "COURT_NUMBER": 5, "COMMENTS": null, "DATA_SOURCE": "NATUREPHL, Pictometry 2020" }, "geometry": { "type": "Point", "coordinates": [ -75.157682393686699, 40.061580383277501 ] } },
{ "type": "Feature", "properties": { "OBJECTID": 227, "PARK_NAME": "William B Simons Recreation Center", "COURT_NUMBER": 6, "COMMENTS": "Tennis Practice Wall", "DATA_SOURCE": "NATUREPHL, Pictometry 2020" }, "geometry": { "type": "Point", "coordinates": [ -75.1579092213465, 40.061392878175297 ] } },
{ "type": "Feature", "properties": { "OBJECTID": 228, "PARK_NAME": "William B Simons Recreation Center", "COURT_NUMBER": 7, "COMMENTS": "Tennis Practice Wall", "DATA_SOURCE": "NATUREPHL, Pictometry 2020" }, "geometry": { "type": "Point", "coordinates": [ -75.157750503872293, 40.061356876251303 ] } },
{ "type": "Feature", "properties": { "OBJECTID": 229, "PARK_NAME": "Helen G Sturgis Playground", "COURT_NUMBER": 2, "COMMENTS": null, "DATA_SOURCE": "Pictometry 2020" }, "geometry": { "type": "Point", "coordinates": [ -75.124190396457706, 40.049520756019 ] } },
{ "type": "Feature", "properties": { "OBJECTID": 230, "PARK_NAME": "Helen G Sturgis Playground", "COURT_NUMBER": 3, "COMMENTS": null, "DATA_SOURCE": "Pictometry 2020" }, "geometry": { "type": "Point", "coordinates": [ -75.124020272130196, 40.049492074700602 ] } },
{ "type": "Feature", "properties": { "OBJECTID": 231, "PARK_NAME": "Torresdale Recreation Center", "COURT_NUMBER": 2, "COMMENTS": null, "DATA_SOURCE": "NATUREPHL and NearMap2021" }, "geometry": { "type": "Point", "coordinates": [ -74.997967884208606, 40.059260225340999 ] } },
{ "type": "Feature", "properties": { "OBJECTID": 232, "PARK_NAME": "Torresdale Recreation Center", "COURT_NUMBER": 3, "COMMENTS": null, "DATA_SOURCE": "NATUREPHL and NearMap2021" }, "geometry": { "type": "Point", "coordinates": [ -74.997824804838899, 40.059330227533302 ] } },
{ "type": "Feature", "properties": { "OBJECTID": 233, "PARK_NAME": "Joseph F Vogt Playground", "COURT_NUMBER": 2, "COMMENTS": null, "DATA_SOURCE": "NATUREPHL and Pictometry 2020" }, "geometry": { "type": "Point", "coordinates": [ -75.047825938396997, 40.028285781985304 ] } },
{ "type": "Feature", "properties": { "OBJECTID": 234, "PARK_NAME": "Water Tower Recreation Center", "COURT_NUMBER": 2, "COMMENTS": null, "DATA_SOURCE": "NATUREPHL, Pictometry 2020" }, "geometry": { "type": "Point", "coordinates": [ -75.200298002716707, 40.074845194355397 ] } },
{ "type": "Feature", "properties": { "OBJECTID": 235, "PARK_NAME": "Water Tower Recreation Center", "COURT_NUMBER": 3, "COMMENTS": null, "DATA_SOURCE": "NATUREPHL, Pictometry 2020" }, "geometry": { "type": "Point", "coordinates": [ -75.200159375968298, 40.074768694296701 ] } },
{ "type": "Feature", "properties": { "OBJECTID": 236, "PARK_NAME": "Water Tower Recreation Center", "COURT_NUMBER": 6, "COMMENTS": null, "DATA_SOURCE": "NATUREPHL, Pictometry 2020" }, "geometry": { "type": "Point", "coordinates": [ -75.200543923463698, 40.074576978251898 ] } },
{ "type": "Feature", "properties": { "OBJECTID": 237, "PARK_NAME": "Water Tower Recreation Center", "COURT_NUMBER": 0, "COMMENTS": "Pickleball Court", "DATA_SOURCE": "NearMap 2021" }, "geometry": { "type": "Point", "coordinates": [ -75.200768274530702, 40.074816531558596 ] } },
{ "type": "Feature", "properties": { "OBJECTID": 238, "PARK_NAME": "Water Tower Recreation Center", "COURT_NUMBER": 0, "COMMENTS": "Pickleball Court", "DATA_SOURCE": "NearMap 2021" }, "geometry": { "type": "Point", "coordinates": [ -75.200684388383905, 40.074764584117197 ] } },
{ "type": "Feature", "properties": { "OBJECTID": 239, "PARK_NAME": "Water Tower Recreation Center", "COURT_NUMBER": 0, "COMMENTS": "Pickleball Court", "DATA_SOURCE": "NearMap 2021" }, "geometry": { "type": "Point", "coordinates": [ -75.200596030668805, 40.0747097262932 ] } },
{ "type": "Feature", "properties": { "OBJECTID": 240, "PARK_NAME": "Water Tower Recreation Center", "COURT_NUMBER": 0, "COMMENTS": "Pickleball Court", "DATA_SOURCE": "NearMap 2021" }, "geometry": { "type": "Point", "coordinates": [ -75.200897346104796, 40.074684942687199 ] } },
{ "type": "Feature", "properties": { "OBJECTID": 241, "PARK_NAME": "Water Tower Recreation Center", "COURT_NUMBER": 0, "COMMENTS": "Pickleball Court", "DATA_SOURCE": "NearMap 2021" }, "geometry": { "type": "Point", "coordinates": [ -75.200810350019793, 40.074635981648797 ] } },
{ "type": "Feature", "properties": { "OBJECTID": 242, "PARK_NAME": "Water Tower Recreation Center", "COURT_NUMBER": 0, "COMMENTS": "Pickleball Court", "DATA_SOURCE": "NearMap 2021" }, "geometry": { "type": "Point", "coordinates": [ -75.200726234797102, 40.074581022511502 ] } },
{ "type": "Feature", "properties": { "OBJECTID": 243, "PARK_NAME": "West Mill Creek Playground", "COURT_NUMBER": 1, "COMMENTS": null, "DATA_SOURCE": "Pictometry 2020" }, "geometry": { "type": "Point", "coordinates": [ -75.225010685271002, 39.968984343642802 ] } },
{ "type": "Feature", "properties": { "OBJECTID": 244, "PARK_NAME": "Wharton Square", "COURT_NUMBER": 2, "COMMENTS": null, "DATA_SOURCE": "NATUREPHL, Pictometry 2020" }, "geometry": { "type": "Point", "coordinates": [ -75.183591611608307, 39.935353765839501 ] } },
{ "type": "Feature", "properties": { "OBJECTID": 245, "PARK_NAME": "Wissinoming Park", "COURT_NUMBER": 2, "COMMENTS": null, "DATA_SOURCE": "NATUREPHL and Pictometry 2020" }, "geometry": { "type": "Point", "coordinates": [ -75.0698250540039, 40.025131400377198 ] } },
{ "type": "Feature", "properties": { "OBJECTID": 246, "PARK_NAME": "Wisters Woods Park", "COURT_NUMBER": 0, "COMMENTS": null, "DATA_SOURCE": "Pictometry 2020" }, "geometry": { "type": "Point", "coordinates": [ -75.1581505978846, 40.034634432052599 ] } },
{ "type": "Feature", "properties": { "OBJECTID": 247, "PARK_NAME": "Wisters Woods Park", "COURT_NUMBER": 0, "COMMENTS": null, "DATA_SOURCE": "Pictometry 2020" }, "geometry": { "type": "Point", "coordinates": [ -75.158741710143801, 40.034114897620697 ] } },
{ "type": "Feature", "properties": { "OBJECTID": 248, "PARK_NAME": "Wisters Woods Park", "COURT_NUMBER": 0, "COMMENTS": null, "DATA_SOURCE": "Pictometry 2020" }, "geometry": { "type": "Point", "coordinates": [ -75.158637576054801, 40.0342105281768 ] } },
{ "type": "Feature", "properties": { "OBJECTID": 249, "PARK_NAME": "Wisters Woods Park", "COURT_NUMBER": 0, "COMMENTS": null, "DATA_SOURCE": "Pictometry 2020" }, "geometry": { "type": "Point", "coordinates": [ -75.158520380247495, 40.034290844902102 ] } },
{ "type": "Feature", "properties": { "OBJECTID": 250, "PARK_NAME": "William H (Billy) Markward Memorial Playground", "COURT_NUMBER": 0, "COMMENTS": "Quickstart tennis court", "DATA_SOURCE": "Pictometry 2020" }, "geometry": { "type": "Point", "coordinates": [ -75.183062378888593, 39.948481370346101 ] } },
{ "type": "Feature", "properties": { "OBJECTID": 251, "PARK_NAME": "Venice Island Performing Arts and Recreation Center", "COURT_NUMBER": 0, "COMMENTS": null, "DATA_SOURCE": "Pictometry 2020" }, "geometry": { "type": "Point", "coordinates": [ -75.221591405351703, 40.0229907566194 ] } },
{ "type": "Feature", "properties": { "OBJECTID": 252, "PARK_NAME": "Venice Island Performing Arts and Recreation Center", "COURT_NUMBER": 0, "COMMENTS": null, "DATA_SOURCE": "Pictometry 2020" }, "geometry": { "type": "Point", "coordinates": [ -75.221541649977098, 40.023077865146597 ] } },
{ "type": "Feature", "properties": { "OBJECTID": 253, "PARK_NAME": "East Poplar Playground", "COURT_NUMBER": 0, "COMMENTS": "Renovated 2021. Known as East Poplar Field.", "DATA_SOURCE": "NearMap2021" }, "geometry": { "type": "Point", "coordinates": [ -75.150198778109299, 39.968307541092102 ] } },
{ "type": "Feature", "properties": { "OBJECTID": 254, "PARK_NAME": "Northwood Park", "COURT_NUMBER": 0, "COMMENTS": null, "DATA_SOURCE": "PPR Archives 2023" }, "geometry": { "type": "Point", "coordinates": [ -75.091198911917004, 40.023959566575499 ] } },
{ "type": "Feature", "properties": { "OBJECTID": 255, "PARK_NAME": "Northwood Park", "COURT_NUMBER": 0, "COMMENTS": "Pickleball courts as well.", "DATA_SOURCE": "PPR Archives 2023" }, "geometry": { "type": "Point", "coordinates": [ -75.091077139444593, 40.023881703348401 ] } },
{ "type": "Feature", "properties": { "OBJECTID": 256, "PARK_NAME": "Northwood Park", "COURT_NUMBER": 0, "COMMENTS": null, "DATA_SOURCE": "PPR Archives 2023" }, "geometry": { "type": "Point", "coordinates": [ -75.090950316008602, 40.023802222801798 ] } }
]
}
